@id	@lat	@lon	name	highway
15382325	10.3064693	76.3331870	Muncipal Hq	bus_stop
15382358	10.3056805	76.3314629	ITI Junction	bus_stop
247400407	8.5119608	76.9633016	Vellayambalam	bus_stop
253165931	8.4979867	76.9547037	panavila	bus_stop
267881353	10.4416131	76.2181471	Poochinnipadam	bus_stop
267904464	11.2921078	75.7645596	Westhill Chungam	bus_stop
267913976	11.2705219	75.8312086	Kovoor Bus Stop	bus_stop
271157595	9.9325968	76.2994534	Shanthi Nagar	bus_stop
289607449	11.1782400	75.8653100	Ramanattukara	
289607455	11.2494390	75.7842030	Palayam Bus Stand	
289607489	11.2528426	75.7834587	Muthalakkulam Bus Stop	bus_stop
289635170	11.4316801	75.9504942	Pullanjimedu	bus_stop
289635180	11.4285492	75.9475150	Ambayathode	bus_stop
289635660	11.3490439	75.9017467	South Koduvally	bus_stop
304987293	8.5120243	77.0121592		bus_stop
305403765	8.5894727	77.0162821		bus_stop
306123101	9.3810445	76.5383535	vandhana	bus_stop
306154982	9.5419057	76.5843426	Kaithepalam	bus_stop
306214020	9.5129649	76.6384211	Nethalloor Junction	bus_stop
306425453	9.6037393	76.4329318	Puthen Road	bus_stop
307430764	9.4375818	76.6462737	Madukoly	bus_stop
307430784	9.4335037	76.6308961	Chengaroor Church Bus Stop	bus_stop
309667969	9.1447037	76.7326477	Nellimoottilpadi	bus_stop
309911271	8.8487817	76.6959991		bus_stop
309912989	8.7362016	76.8088814		bus_stop
331170751	8.7554650	76.6996449		bus_stop
331174165	8.7705566	76.7332736		bus_stop
331176028	8.7553479	76.7073856	Chempakathinmood	bus_stop
334632669	8.7393073	76.8057919		bus_stop
343357837	9.7531367	76.3913085	Kerala State Road Transport Corporation Bus Stand	bus_stop
344428259	10.6402579	76.1202370	Chiranellur Koombuzha Bridge	bus_stop
344566097	11.2664520	75.8169764	Kavu Bus Stop	bus_stop
347199567	8.8764222	76.6238298	Pallimukku	bus_stop
351628870	10.7616809	76.6580850	Civil Station	bus_stop
353187832	10.6869548	76.6612977		bus_stop
353187946	10.7713961	76.6304411	chungam bus stop	bus_stop
353409857	10.0863090	77.0600795	Town Bus Stand	
354065017	8.4834042	76.9474622	East Fort	
356643995	9.5776415	76.3064882	Shasthri Junction	bus_stop
356670733	8.5189560	77.0261653		bus_stop
356674255	8.9668737	77.0557813	Thenmala Pathekkar	bus_stop
359637381	9.4630027	76.8006267	Mukkada	bus_stop
359638286	9.4840771	76.8719933	Manjalaruvi Bus Stop	bus_stop
359638466	9.5026910	76.8857697	Pulikkunnu Top Bus Stop	bus_stop
360378970	8.5069532	77.0809575	Kattakada	
391794727	11.2621919	75.9059613	Peruvayal	bus_stop
429754638	11.2583983	75.7958023	Parayancheri Bus Stop	bus_stop
429754639	11.2584080	75.8028779	Kotooli Bus Stop	bus_stop
429754640	11.2588073	75.8052918	Patteri Bus Stop	bus_stop
429754643	11.2630440	75.8099236	Thondayad	bus_stop
443616788	11.6133442	76.0826835	Kalpetta Old Bus stand	bus_stop
460424490	9.5741348	76.9916404	Kodathipadi Bus Stop	bus_stop
538871836	11.3196773	75.9316848	NIT Calicut	bus_stop
539412616	11.3196331	75.9311902	NIT Calicut	bus_stop
543665299	11.0694997	76.3375851	Kunjukulam Bus Stop	bus_stop
548339155	10.9471600	76.1376332	Kolathur Bus Stand	
548342223	11.0598896	76.3393333	Bus Waiting Shed	bus_stop
550165648	10.8892892	76.0720427		bus_stop
561154744	11.1196933	76.1205926	Old Bus Stand	
567826792	12.3102142	75.0952090	Vinayaka	bus_stop
567826844	12.3069481	75.1030561		bus_stop
567826862	12.3037393	75.1055558		bus_stop
567826881	12.3206390	75.1074655	Chammattamvayal bus stop	bus_stop
580722809	12.0692720	75.1901501	Naval Academy Road	bus_stop
584913307	12.1326923	75.2168933	Kothayamukku	bus_stop
585115488	12.2675190	75.3570267	Kakkayamchal Busstop	bus_stop
585115541	12.2726213	75.3622589	Cherupuzha Junction	bus_stop
594870342	9.4397580	76.5605518	Mukkathupady Stop	bus_stop
594884012	9.8339251	76.5922895	Puthuveli	bus_stop
594955917	10.1350271	76.3112219	Parana Bus Stop	bus_stop
603582747	12.1213254	75.3953555	Kottakkanam school	bus_stop
622250817	9.3847398	76.6147835	Thottabhagam	bus_stop
622522403	9.9531189	76.3899537	Sasthammugal	bus_stop
622536423	9.9390558	76.4185065	Kuppethazham	bus_stop
622536426	9.9337278	76.4233600	Kochangady	bus_stop
622536442	9.9437003	76.4008187	Tondanpara	bus_stop
622536448	9.9418814	76.4105592	Vandipetta	bus_stop
622536449	9.9397164	76.4133365	Valavu	bus_stop
622536458	9.9472484	76.3953604	Vennikkulam	bus_stop
633187964	11.9581826	75.4765660	Velluvayal	bus_stop
633277907	12.1795496	75.1893792	Karivellur	bus_stop
644600446	8.5107740	76.9614259	Vellayambalam	bus_stop
662751107	10.6082595	76.1795366	mamapadi bus stop	bus_stop
662819426	10.6010351	76.1803432	Avanoor	bus_stop
662819504	10.6084506	76.1760893	Avanoor aalthara	bus_stop
662819538	10.6089989	76.1839042	Edakkulam School Stop	bus_stop
662819643	10.6013679	76.2036791	China Bazar	bus_stop
662819664	10.6035657	76.2022852	Medical College Road	bus_stop
662819698	10.6032872	76.1933794	Velappaya Temple	bus_stop
662819729	10.6022077	76.1896935	Perinjira	bus_stop
662819765	10.6004113	76.1879406	Manithara	bus_stop
662863419	10.6103909	76.1834750	Edakkulam Ration Shop	bus_stop
678584549	9.7492616	76.6441134		bus_stop
679055132	9.7525024	76.6612829	Nechipuzhoor	
679641365	9.7327128	76.6307492	Illickal Thazhe	bus_stop
679642711	9.7377123	76.6216218	andoor	bus_stop
685071598	10.6037585	76.1793044	Asan Padi	bus_stop
702687217	12.3909994	75.2107979	Chakkittadukkam	bus_stop
705132921	9.5822845	76.7851311	Illimoodu Bus Stop	bus_stop
705522297	9.7427283	76.6110810	Marangattupilly Bus Stop	bus_stop
716880116	9.7333106	76.6261049	Kozhikombu	bus_stop
725357881	9.7200520	76.6514268	Thamarakulam	bus_stop
737863508	9.7530238	76.5615324	Kuravilangad Ksrtc Busstop	
744823628	8.5386686	77.0217409	Puliyarakonam	bus_stop
744823646	8.5390116	77.0243012	Myladi Junction	bus_stop
744851883	8.5359337	77.0027395	Munnammoodu	bus_stop
744851888	8.5449956	77.0023500	Malamukal	bus_stop
744851908	8.5246668	76.9889390	Vattiyoorkavu Junction	bus_stop
744851966	8.5370382	77.0174991	Prambumukku	bus_stop
744851970	8.5322287	77.0104486	Vellaikkadavu	bus_stop
744851975	8.5322000	77.0262110	Kavinpuram	bus_stop
744851980	8.5216959	77.0299231	Kollamkonam	bus_stop
744868461	8.5425978	77.0124566	Mylammoodu	bus_stop
744877165	8.5256447	76.9925814	Thoppumukku Junction	bus_stop
744877170	8.5131274	76.9785059	Maruthankuzhi	bus_stop
764885479	9.7590652	76.6357841	kudakkachira Pally Kavala;Kudakkachira	bus_stop
765697277	9.8371923	76.7455168	Muttom Bus Stand	
775942820	11.2215230	75.7929032	Kannanchery	bus_stop
775942821	11.2206372	75.7929335	Kannanchery	bus_stop
775942828	11.2262568	75.7911740	Panniyankara	bus_stop
775942838	11.2268303	75.7913667	Panniyankara	bus_stop
775949131	11.2193320	75.7941816	Ashramam	bus_stop
792149010	10.6384878	76.0215204	Mukham Moodi Mukku	bus_stop
801907220	9.7996742	76.6598304	Ramapuram Private BusStand	
854622337	9.5566250	76.7134367	College padi	bus_stop
870011816	9.8035840	76.6140319	Areekara	bus_stop
944902406	9.9778726	76.3342102	Labour Corner	bus_stop
945277211	9.9458896	76.6442082		bus_stop
945277294	9.9445474	76.6434187		bus_stop
976452403	10.0280687	76.3110930	Edappally Toll	bus_stop
982135818	9.9735460	76.2441410	Vypin	bus_stop
997591145	9.6677898	76.5557469	Kerala state road transport coperation bus stand ettumanoor	
1011448233	8.4904054	76.9170405	ITI	bus_stop
1011448257	8.4887495	76.9189790	KSEB	bus_stop
1015457510	9.7001066	76.7583403	Panackapalam Junction	bus_stop
1015492643	9.7524972	76.7614083	Kailasamattam	bus_stop
1049713235	10.1395161	76.1990351	Palli	bus_stop
1049713241	10.1445191	76.2264466	KMK Junction	bus_stop
1051266451	9.0492452	76.8641767	Vakkeel Mukku	bus_stop
1051276822	9.0521696	76.8565053	Kurishummoodu	bus_stop
1051399901	9.0262364	76.8499634	Kunnikodu LPS Bus Stop	bus_stop
1051403672	9.0179903	76.8374557	Chethadi bus Stop	bus_stop
1051403676	9.0240424	76.8471990	Kunnikode	bus_stop
1051403684	9.0234956	76.8471806	Kunnikodu	bus_stop
1051403701	9.0200061	76.8437083	Pachila Valavu	bus_stop
1051411878	9.0172685	76.8350705	Chethady	bus_stop
1051411886	9.0139782	76.8255142	Chengamanadu	bus_stop
1051698518	9.1533562	76.7339793	Adoor Private Bus Stop	bus_stop
1051698542	9.1567766	76.7306466	Private Bus Stand Adoor	bus_stop
1054759920	11.2162405	75.7961011	vattakinnar	bus_stop
1054759922	11.2151986	75.7978741	vattakinar	bus_stop
1055132385	9.6560256	76.8322510	Kunnonni	bus_stop
1063556759	11.2698707	75.7760743	Nadakkave Bus Stop	bus_stop
1063556763	11.2732775	75.7747275	Vandipetta	bus_stop
1063556765	11.2735031	75.7748455	Vandipetta	bus_stop
1069345860	9.4173390	76.5491634	Idinjillam	bus_stop
1078144106	9.7035589	76.7200171	Marygiri Hospital	bus_stop
1080615518	12.5235708	74.9951732	Kudlu Bus stop	bus_stop
1080616196	12.5280457	74.9970428	Parekatta Bus stop	bus_stop
1080644698	12.5082553	74.9880042	Karandakkad	bus_stop
1080684023	12.5068621	74.9942898	Kasaragod Muncipal Bus stand	
1080688675	12.5114118	74.9980115	Nullipady Busstop	bus_stop
1080729418	11.2530547	75.7818031	LIC Bus stop	bus_stop
1080732673	11.4397267	75.7107916	Aquaduct	bus_stop
1081629154	12.5263017	74.9958409	Bus stop	bus_stop
1083025372	12.5070762	74.9901869	aswini nagar	bus_stop
1085841407	10.6870112	76.6601190		bus_stop
1111334197	11.4731700	75.6408007		bus_stop
1111407968	11.8660057	75.3666198	Prabath Junction	bus_stop
1114147971	8.5831052	76.8625379	Vettu Road	bus_stop
1129139562	11.2521469	75.8048497	Mylampadi Junction	bus_stop
1161721527	10.3019364	76.3359263	Private bus stand	
1166511365	8.8855262	76.5800666	Lekshmi Nada	bus_stop
1166511825	8.8890226	76.5752614	Ammachiveedu	bus_stop
1166965605	10.6007606	76.0594202	Thaikkad Thirivu	bus_stop
1166965746	10.5933319	76.0438602	Guruvayur Private Bus Stand	
1172715264	10.1887554	76.2019783	Moothakunnam Bus Stop	bus_stop
1190898939	9.9432581	76.3739987	Thiruvankulam Junction	bus_stop
1195120299	10.2749119	77.1599206	Bus Stand	
1195407672	10.1015078	76.5416684	Cherukunnam	bus_stop
1195407691	10.0697318	76.6021079	Nangelipadi	bus_stop
1221974561	10.2260879	76.4142155	Malancharakku	bus_stop
1237505637	8.7522944	76.7189883	Kannamba	bus_stop
1257775021	9.7119117	76.7077240	Kochidappadi	bus_stop
1311896424	9.6905074	76.7427285	Kulam Kavala	bus_stop
1312822824	9.6360157	76.7313575	Kuruvikkoodu	bus_stop
1312823027	9.5712542	76.7507571	Attikkal	bus_stop
1368663722	8.5084398	76.9876084		bus_stop
1368663732	8.5096282	76.9944371		bus_stop
1413371601	9.8877356	76.7586621	Meenmutty	bus_stop
1413447772	9.9214521	76.7570376	Ezhumuttom	bus_stop
1413447774	9.9233544	76.7703414		bus_stop
1413469387	9.8999447	76.7274529	Karikkodu	bus_stop
1465970791	10.9167488	76.0963587	Athikarai Padi	bus_stop
1465970792	10.9210984	76.0980123		bus_stop
1466006847	10.9044378	76.0976603	Pookatiri	bus_stop
1466006853	10.9026102	76.0895258	Palli Road	bus_stop
1468047003	12.4507487	75.0224926	Kalanad bus station	
1468049848	12.4550545	75.0332858	Mangad Bus Stop	
1472174498	10.0207497	76.3436819	"Bus Terminal, Kakkanad"	
1474435860	11.9896481	75.6784147	Iritty	
1483966976	10.5002715	76.1076995	kambanipadi stop	bus_stop
1484828100	9.2833590	76.4415461	Danapady	bus_stop
1488474515	8.4705379	76.9810403	Pappanamcode	
1489651296	9.6961747	76.3471741	Pallikavala	bus_stop
1510460479	9.1213650	76.4949445		bus_stop
1510460509	9.1251637	76.4961424	MADATHIL STOP	bus_stop
1511950222	9.5381344	76.3420893	Luther School Junction Komalapuram	bus_stop
1511950268	9.5428515	76.3422875	Komalapuram	bus_stop
1525970903	10.0730236	76.3991994	Confident ATIK III	bus_stop
1537939333	9.5339245	76.3156828	Pathirapally	bus_stop
1553237990	10.8608351	76.0944716		bus_stop
1568058791	9.5314892	76.7844997	Mannamplavu	bus_stop
1568058799	9.5293774	76.7849040	Pallippadi	bus_stop
1568058829	9.5247744	76.7812379	Moonnam Mile	bus_stop
1568058840	9.5192765	76.7795919	Karakkamattam	bus_stop
1568058900	9.5134602	76.7814853	Valakkayam	bus_stop
1568073084	9.5386452	76.7925018	Anchilippa Bus Stop	bus_stop
1568073133	9.5382615	76.7896677	Kathalangal Padi	bus_stop
1623281192	8.3119029	77.1059741	Pazhaya Uchakkada	bus_stop
1653512597	9.6462281	76.6341294	Alummodu Jn.	bus_stop
1654709650	9.9362521	76.7560390	Shappumpadi	bus_stop
1667290710	8.5598957	77.0579136	Naalumukk junction	bus_stop
1668617281	11.7609615	75.4820381	"Ksrtc Depot, Thalassery"	
1668649586	11.7490806	75.4888662		bus_stop
1669921725	8.5665959	76.8730921	Kazhakuttam Market	bus_stop
1669924464	8.5677727	76.8736216		bus_stop
1672176838	9.5697175	76.5951556	Malakunnam	bus_stop
1677931992	10.7538148	76.2087543		bus_stop
1681356854	11.7606321	75.4925762	prathiksha	bus_stop
1681397094	11.7510310	75.4918556		bus_stop
1682779092	9.2553663	76.5659302	Pynummoodu	bus_stop
1682930314	12.0802941	75.2633371	Pilathara Bus Stand	
1683000770	8.4404493	76.9556860	Thiruvallam temple bus stop	bus_stop
1683013520	8.4411055	76.9550129		bus_stop
1683508267	9.0636111	76.5684161		bus_stop
1683508647	9.1265664	76.6325313	KOTTAPURAM	bus_stop
1685165893	12.1081344	75.2151009	Payyanur New	
1689155707	12.0808008	75.2409143	Andamkovval	bus_stop
1689876487	11.5974016	75.5875535	Vatakara Old Bus Stand	
1700628944	10.8241536	76.2809001	Parekkad	bus_stop
1700628975	10.8357826	76.2776494	Mundakottukurushi Hospital Jn.	bus_stop
1700629110	10.8643089	76.2824177	krishnappadi	bus_stop
1704785116	8.3916820	76.9749837	Kovalam beach	bus_stop
1715812086	8.4850898	76.9714262	Kunjalummoodu	bus_stop
1715987549	8.4827661	76.9761583		bus_stop
1719483659	10.0936438	76.5042864	ChanganChira	bus_stop
1719486902	10.0918794	76.5100934	peechinammukal	bus_stop
1725058325	9.5383464	76.8925461	Kurishadi	bus_stop
1725058504	9.5580882	76.9558103	Pullupara Bus Stop	bus_stop
1725536180	10.6707693	76.0023982	Attupuram	bus_stop
1725554525	10.7487282	75.9688914	Panampad	bus_stop
1725558398	10.7385932	75.9731668	Jishar	bus_stop
1726646170	8.8106032	76.6685779		bus_stop
1726690542	8.4821270	76.9572728	Killippalam Junction	bus_stop
1726690625	8.4821100	76.9666448	Karamana	bus_stop
1735119315	9.7424253	76.6118686	മരങ്ങാട്ടുപിള്ളി	bus_stop
1750608503	12.5274999	75.0064684	A R Camp	bus_stop
1750611849	12.5302950	74.9983896	Vivekananda Nagar	bus_stop
1750615125	12.5106398	74.9897931	Krishna Theater	bus_stop
1750616740	12.5119648	74.9908767	Battampara	bus_stop
1750617095	12.5134311	74.9920837	Soorlu	bus_stop
1750619411	12.5153164	74.9925397	Choori	bus_stop
1750620881	12.5197133	74.9945456	Meepuguri	bus_stop
1750670373	12.5337155	74.9994973	Mannippady	bus_stop
1750670815	12.5363050	74.9998701	Mannippady II	bus_stop
1750675697	12.5446898	75.0007672	Uliyathaduka(Seethangoli Jn)	bus_stop
1750677915	12.5627455	75.0209522	Patla Road	bus_stop
1750712879	12.5167694	75.0144506	Vidyanagar	bus_stop
1755918981	10.0345510	76.2720485		bus_stop
1770461910	11.1112388	75.8356331	Anangadi	bus_stop
1771519843	8.4912104	76.9470014	Ayurveda College	bus_stop
1776776979	12.0740605	75.1920560	Punnakkadavu	bus_stop
1776776980	12.0706905	75.1909218	Kunnatheru	bus_stop
1776815093	12.0694210	75.1963936	Kallettum Kadavu	bus_stop
1777004977	12.1008992	75.2305276	Payynur College Bus Stop	bus_stop
1782396411	9.7183985	76.5598027	vempally north	bus_stop
1787249622	12.0910795	75.1946515	Payyanur Railway Station	bus_stop
1787249624	12.0799574	75.1949520	Punchakkad	bus_stop
1787256216	12.0976021	75.1934808	Kotty Railway Gate	
1787262174	12.1056768	75.2046645	Bypass Road Payyanur	bus_stop
1787291822	12.1039803	75.2014255	Block Office	bus_stop
1800648332	11.2858321	75.7680356	Westhill (West Hill) bus_stop	bus_stop
1805290549	8.5885178	76.9500600	"Pallilivala,Vattappara"	bus_stop
1815810055	10.0518738	77.1967539		bus_stop
1824531738	10.6097473	76.0033382	Athirthi Bus Stop	bus_stop
1824532633	10.6056546	76.0055584	Athani Thiruvathira	bus_stop
1824533243	10.6023302	76.0070498	Thiruvathra School	bus_stop
1824546384	10.5984757	76.0086886	Putiyara	bus_stop
1824547774	10.5887949	76.0133469	vishwanath temple	bus_stop
1824549974	10.5920533	76.0116819	"Ayinipully, manathala"	bus_stop
1824571352	10.5800288	76.0183544	manathala	bus_stop
1825903903	10.5945582	76.0364251	West Nada	bus_stop
1842181569	9.5984192	76.5282884	Nagampadam Bridge	bus_stop
1842395429	11.3038641	75.8741753	IIm	bus_stop
1842395440	11.4714252	75.9684797		
1850148559	11.3638898	75.9645525	Omassery	
1850177930	11.3208658	75.9971628	Mukkam	
1855500252	11.3410113	75.9250465	Thalapperumanna;Thala paerumanna	bus_stop
1855535725	11.3995822	75.9543872	Koodathai	bus_stop
1855535823	11.3814816	75.9535986	Mudoor	bus_stop
1855552754	11.4144163	75.9444844	Vezhupoor Jn	bus_stop
1855552876	11.4051510	75.9482288	Chudalamukku	bus_stop
1856760050	8.7552118	76.8585899	Chemmarathumukku;Chembarathimukku Bus Stop	bus_stop
1857090045	8.4939347	76.9538847	Model School	bus_stop
1862185265	10.2329725	76.1951200	Chandapura	bus_stop
1867138831	11.2680800	75.8200866	presentation but stop	bus_stop
1877768220	8.7748267	76.8805613	KSRTC Bus Depot Kilimanoor	
1878806017	11.2728511	75.7779459	East Nadakkavu	bus_stop
1878806029	11.2730063	75.7772405	East Nadakkavu	bus_stop
1889339116	11.6773239	75.7802670	Thottil Palam Bus Stand	
1889339117	11.6787041	75.7827740	Thottilpalam KSRTC Depot	bus_stop
1891131955	9.6172175	76.5095816		bus_stop
1903803439	11.2644359	75.8908622	Poovattuparamba	bus_stop
1903804053	11.2675911	75.8718357	Kuttikattoor	bus_stop
1903885089	11.2705097	75.8487408	Velliparamba	bus_stop
1903886506	11.2710253	75.8375238	Calicut Medical college toward Mavoor	bus_stop
1917699333	8.8570173	76.7221481	Chathannoor KSRTC Stand	
1930595751	10.0604552	76.6287507	കോതമംഗലം	
1960845678	10.7712438	76.5960754	Snup school bus stop	bus_stop
1964047991	12.3393503	75.1051569	Bus Stop - Kanhangad	bus_stop
1986777904	10.7760698	76.8212040	Menopara	bus_stop
1988660505	8.6371660	77.0220538		bus_stop
1989314958	10.7653938	76.6594781	Fort Maidan Chittor Road	bus_stop
1989314960	10.7657522	76.6552189		bus_stop
1989314961	10.7664572	76.6597061	Stadium Bypass	bus_stop
1989314963	10.7652699	76.6586065	Fort Maidan	bus_stop
1989351625	10.7730317	76.6628465	Stadium	bus_stop
1989351627	10.7680117	76.6502035		bus_stop
1989446717	10.7589358	76.6307672		bus_stop
1989446747	10.7644573	76.6445568	Pudupalli Street Bus Stop	bus_stop
1989446754	10.7623337	76.6422162		bus_stop
1989446763	10.7619816	76.6380262	Vennakkara Bus Stop	bus_stop
1989446767	10.7678079	76.6491833	KSRT Bus Stand	bus_stop
1989446770	10.7624315	76.6421967		bus_stop
1989446799	10.7618761	76.6381734		bus_stop
1989446801	10.7618686	76.6361960		bus_stop
1989446805	10.7617922	76.6361880		bus_stop
1989446810	10.7614438	76.6346543		bus_stop
1989446827	10.7615260	76.6346377		bus_stop
1989448345	10.7555524	76.6272938		bus_stop
1989448354	10.7551094	76.6215858		bus_stop
1992131923	8.5185176	77.0231096		bus_stop
1993430382	10.7748724	76.6532971		bus_stop
1993765093	10.7752697	76.6581667		bus_stop
2030179391	10.7686160	76.6509765	Mission School	bus_stop
2031343407	10.7785628	76.6536044		bus_stop
2043625478	10.6993688	76.7518918	Chittur Hospital Junction	bus_stop
2062633590	10.7684954	76.6458704	Nurani Bus Stop	bus_stop
2080113582	9.9892528	76.7898459	Bus Stop near SNMHSS	bus_stop
2083458733	8.9824738	77.1530879	ആര്യങ്കാവ്	bus_stop
2090587169	10.6641513	76.0031532	Vadakkekad Junction	bus_stop
2097801388	10.7701469	76.1921132	Irumbakassery	bus_stop
2101122702	9.9015568	76.3929721	Karavatte Kurish	bus_stop
2101122705	9.9137798	76.4120149	Thuppampady	bus_stop
2101136078	9.9206603	76.4086044	Thalacode	bus_stop
2101143428	9.9145949	76.4214193	Vettikkal	bus_stop
2111525968	10.8026555	76.2185009	Ongallur	bus_stop
2116916209	10.7140159	76.7337864	athicode	bus_stop
2116952978	10.6835723	76.7119828	Mettupalayam Junction	bus_stop
2117629688	10.6367660	76.5964533	Kunissery	bus_stop
2117629723	10.6382389	76.5923069	kunisserry	bus_stop
2121445667	10.8234810	76.6316828	Ummini	bus_stop
2121713395	10.7853734	76.2763317	Alinchuvadu	bus_stop
2121714109	10.8497112	76.2774380	Moloor city	bus_stop
2123457153	8.9698910	77.0987014	Kazhuthurutty	bus_stop
2133328111	10.7336968	76.6433049	Police Quarters	bus_stop
2135037717	11.3588847	75.9977222	Thottathinkadavu	bus_stop
2152043388	8.7295272	76.7353631		bus_stop
2152043406	8.7325727	76.7108623		bus_stop
2152043433	8.7344154	76.7255229		bus_stop
2152043448	8.7361972	76.7094327	Kairali Nagar	bus_stop
2152043460	8.7403666	76.7227335	Varkala Sivagiri	bus_stop
2156637630	10.6487488	76.7216054	karipali	bus_stop
2158769811	10.8162702	76.8619410	Velanthavalam Junction	bus_stop
2165142606	10.9751904	76.2254862	Pattambi Cherpulassery	bus_stop
2236999304	9.6626941	76.9951174	Erumbadam Bus Stop	bus_stop
2236999938	9.6932847	77.0261625	Parappu Bus Stop	bus_stop
2271219159	9.7162369	76.6649628	Nelliyani	bus_stop
2271279520	9.7576158	76.5610757	Kuravilangad Junction	
2288992305	9.7914693	76.8523262	Private Bus Station	
2291876211	9.6354156	76.6065123	Ayarkkunnam Private Bus Station	
2294085419	9.7593514	76.5617627	Kuravilangad Bus Stand	
2301202882	11.2781813	75.8094234	Chevarambalam	bus_stop
2301209739	11.2755316	75.8131284	Chevarambalam Store Bus Stop	bus_stop
2306040541	10.2131160	76.3992118	Ration Kada	bus_stop
2309571805	8.9053659	76.5614752	Ramankulangara	bus_stop
2309572281	8.9110574	76.5482877	KBC Junction	bus_stop
2339488528	9.6425316	76.4998361		bus_stop
2349386320	9.7460053	76.7025391	Pravithanam	bus_stop
2355694746	11.2450245	75.9755123	Edavannappara Bustand	
2376855121	9.9516908	76.3583345	Karingachira	bus_stop
2376866788	9.9468775	76.3532115	Railway Station	bus_stop
2388216777	9.0922448	76.4941459	Vallikavu Bus stop	bus_stop
2391140364	9.0891637	76.4858072	Parayakadavu bus stop	bus_stop
2391343016	9.9520508	76.2537227	Koovapadam	bus_stop
2391343017	9.9519841	76.2524456	Koovapadam	bus_stop
2391343018	9.9520508	76.2557319	Paravana Mukk	bus_stop
2391343019	9.9519132	76.2576994	Kappalandi Mukk	bus_stop
2391343021	9.9550343	76.2578416	Chakkamadam	bus_stop
2391343022	9.9591664	76.2578919	Star Junction	bus_stop
2391343057	9.9496497	76.2556511	Panayappilly	bus_stop
2401592592	8.8821150	76.5973436	Camp	bus_stop
2434821985	10.9164324	75.9244448	Tirur Market	bus_stop
2434822721	10.9149365	75.9230339	City	bus_stop
2435033943	10.8959799	75.9276107	Boys High School	bus_stop
2435035495	10.8951106	75.9277663	Boys High School	bus_stop
2435300880	10.8990218	75.9260336	Panchami	bus_stop
2435301595	10.8990867	75.9261888	Panchami	bus_stop
2435301869	10.9018101	75.9251347	Police Lane	bus_stop
2435302287	10.9015160	75.9254221	Police Lane	bus_stop
2435302651	10.9025449	75.9223961	Pottathappadi	bus_stop
2435303866	10.9058898	75.9210497	K. G. Padi	bus_stop
2435303925	10.9065983	75.9207734	K. G. Padi	bus_stop
2435304486	10.9080258	75.9205722	Poongottukulam	bus_stop
2435305228	10.9096773	75.9198667	Poongottukulam	bus_stop
2435305731	10.9130352	75.9192740	Tazhepalam	bus_stop
2435305736	10.9127033	75.9192043	Tazhepalam	bus_stop
2435343762	11.9438169	75.3051157	Azheekal Bus Terminal	
2444946691	9.5283558	76.5148446	Pallom	bus_stop
2446879384	8.5937562	76.9371103	Kuttiyani	bus_stop
2447412265	10.5099899	76.2785286	ടെക്സൺ കോർണർ	bus_stop
2447412266	10.5075400	76.2783483		bus_stop
2447856175	8.9022382	76.5634839	Medayil mukk	bus_stop
2447877548	10.2747755	76.3214583	Annanad Junction Bus Stop	bus_stop
2449090672	10.1749432	76.3530024	Anappara	bus_stop
2472265209	8.7632164	76.7657715		bus_stop
2472265271	8.7746064	76.7608850		bus_stop
2486118341	8.4523745	76.9678453	Karumom Jn Bus stop	bus_stop
2487151800	11.5333381	76.0258160	veterinary university	bus_stop
2494686643	9.0365111	76.8531900	Avaneeswaram	bus_stop
2494715830	9.0758553	76.8567701	Pidavoor	bus_stop
2495194365	9.0391033	76.8530673	Kanjirathummoodu	bus_stop
2495205477	9.0425493	76.8551628	Neduvannoor Avaneeswaram FCI	bus_stop
2495974194	9.0444510	76.8293823	Naduthery	bus_stop
2496506447	9.2153798	76.6304825	Pattoor	bus_stop
2508302672	9.0945492	76.8525862	Kallumkadavu Bus Stand	
2517660308	9.5029427	76.3412923	Kodathi	bus_stop
2517662445	9.5007419	76.3445301	Boat Jetty	bus_stop
2517681232	8.8878142	76.5871648	St. Josephs	bus_stop
2517708418	8.8932693	76.5748687	Collectorate	bus_stop
2521303881	8.9039919	76.6228129	Kallumthazham	bus_stop
2521310466	8.8860270	76.6051634	Chemmamukku	bus_stop
2521311848	8.8876781	76.6111427	Ammannada	bus_stop
2521335876	8.8804338	76.6022101	College Junction	bus_stop
2566824688	9.2072973	76.7273371	Keerukuzhy	bus_stop
2566826228	9.2092353	76.7460874	Tholuzham	bus_stop
2569491691	8.8133301	76.7219742	Block Maram Junction	bus_stop
2578244558	8.9701940	76.6934685	Aarumurikkada	bus_stop
2580368306	8.5054563	76.9163047	pettah	bus_stop
2580368308	8.5072514	76.9141117	Oolankuzhi	bus_stop
2580368310	8.5084906	76.9133536	Oolankuzhi	bus_stop
2580734253	10.0051815	76.3128361	Pipeline Junction	bus_stop
2580734650	9.9989800	76.3138595	Ernakulam Medical Centre	bus_stop
2580734682	9.9990150	76.3140901	Ernakulam Medical Centre	bus_stop
2584628738	11.8595992	75.3763579	Moideen Masjid	bus_stop
2586373802	11.8459045	75.3972735	Adikadalayi Last Stop	bus_stop
2592393763	11.8605881	75.3721756	govt hospital	bus_stop
2592394225	11.8619489	75.3713982	Kannur Government Hospital Private Bus Stand	
2592396980	11.8592136	75.3765716	Moideen Masjid	bus_stop
2592731164	11.8454222	75.4012435	sadham beach road	bus_stop
2596370741	10.5160375	76.2176243		bus_stop
2601366601	8.7105874	76.8124096		bus_stop
2601366618	8.7196064	76.8127778	Alamcode	bus_stop
2602902347	11.6121780	76.0826612		bus_stop
2603200470	8.8782875	76.6092621	Polayathodu	bus_stop
2605819078	9.3371345	76.7049673	Kozhencherry Private Bus Stand	
2615880374	8.8760365	76.6157654	Madannada	bus_stop
2621428502	8.8762802	76.6244707	Pallimukku	bus_stop
2622200561	8.8877536	76.5904338	Chinnakkada	bus_stop
2623815260	11.8045868	76.0071542	"Kerala State Road Transport Corperation, Mananthavadi"	
2628271865	11.7984177	76.0052535	Mananthavady	bus_stop
2628272124	11.8017035	76.0036686		bus_stop
2628785327	11.8034947	76.0066753		bus_stop
2642741267	11.7664230	75.8979093	Neelom	bus_stop
2661740836	11.4460059	75.8080513	Panayi	bus_stop
2681867355	8.8849229	76.5909488	Chinnakkada	bus_stop
2681876758	8.8701318	76.6429557	Astamudi	bus_stop
2681876762	8.8698378	76.6417180		bus_stop
2681876764	8.8747240	76.6403019	Medical College	bus_stop
2681879121	8.8578587	76.6174343	Eravipuram	bus_stop
2684955518	9.0264229	76.8519519	Sasthri Junction	bus_stop
2684978326	8.8869742	76.5916244	Chinnakkada	bus_stop
2688024022	8.4640480	76.9686346	Bus Stop	bus_stop
2688024024	8.4704632	76.9659582	Bus Stop	bus_stop
2688024025	8.4731722	76.9666288	Bus Stop	bus_stop
2688024028	8.4620595	76.9708584	Maruthoorkadavu	bus_stop
2700967381	11.3337747	76.2760231	Chungathara	bus_stop
2702153851	8.4980236	76.9854667	Vijayamohini Mills	bus_stop
2705751127	10.9769346	76.1749946	peedikapadi	bus_stop
2705775916	10.9779669	76.1103159	Moochikkal Bus Stop	bus_stop
2712142797	9.9779698	76.2770679	Menaka	bus_stop
2712147178	9.9680734	76.2880821	Ernakulam South	bus_stop
2714487412	11.0893138	75.8698727	Koottumoochi Calicut Bus Stop	bus_stop
2714493547	11.0919851	75.8759249	Thayyilakkadavu Bus Stop	bus_stop
2721515989	9.1501756	76.7534118	TB Junction	bus_stop
2721574098	11.0488923	75.8588410		bus_stop
2722699323	11.0891368	75.8697269	Tirur KoottuMoochi Bus Stop	bus_stop
2723417494	8.8902131	76.5869069	Chinnakkada	bus_stop
2728196032	9.2915947	76.6477005	Mulakuzha	bus_stop
2728196040	9.2917485	76.6478027	Mulakuzha	bus_stop
2744190416	10.0189006	76.2750339	Vaduthala Valavu	bus_stop
2744199202	10.0140145	76.2768412	Don Bosco	bus_stop
2744199206	10.0131716	76.2767579	Vaduthala Gate	bus_stop
2744199210	10.0065637	76.2782977	Lourde's Hospital	bus_stop
2744199215	10.0066916	76.2784226	Lourde's Hospital	bus_stop
2744203515	10.0012646	76.2795898	Pachalam Junction	bus_stop
2744203523	10.0014412	76.2792621	Pachalam Junction	bus_stop
2744203531	9.9959899	76.2805729	Ayyappankavu	bus_stop
2747163294	12.5887802	75.0721318	Badiadka (Badiyadka Bus stand)	bus_stop
2780838959	9.9941308	76.2919620	Kaloor	bus_stop
2780917203	10.1449925	76.2317568	KSRTC Bus Station	bus_stop
2787676060	11.4260544	75.9401376	Thamarassery Check Post	bus_stop
2802952290	11.6412276	75.5718137	Nadapuram road	bus_stop
2804216858	9.1759505	76.6359225	Para	bus_stop
2824756115	11.5605279	75.7568999	Bank Stop	bus_stop
2828699036	8.3560170	77.0197912	Adimalathura	bus_stop
2828708639	8.3595003	77.0280641	Chappath	bus_stop
2831149581	11.1440425	75.8216783	Vattapparamb	bus_stop
2831290677	11.0813479	75.8606944	Kuppivalavu Bus Stop	bus_stop
2836362591	10.3265516	76.2177056	cheravalav stop	bus_stop
2841300800	10.3125186	76.2530787		bus_stop
2841303245	10.3101541	76.2761041	kombodinjamakkal-vellangallur stop	bus_stop
2857563792	11.4088511	75.9347869	Karadi - Thamarassery	bus_stop
2858643010	10.1674294	76.2130069	Chakkamarassery Bus Stop	bus_stop
2858684139	10.1817850	76.2047335	Labour Junction	bus_stop
2864629513	11.0542367	76.0913473	Munduparamba	bus_stop
2875692897	9.4456858	76.5409609	Changanassery	
2881470911	10.6018563	76.0632173	Paris	bus_stop
2883013286	9.7127516	76.6846347	Old Municipal Bus Stand	
2883196477	9.6734751	76.8132759	Poonjar	
2883508357	8.6779888	76.9103719	വെഞ്ഞാറമ്മൂട്	
2883508360	8.6796539	76.9123997	Venjaramoodu Private Bus Stand	
2884810713	11.2579333	76.3172273	Chulliyode	bus_stop
2884932552	11.3521608	76.2971208	Kalasagar	bus_stop
2884932592	11.3565821	76.3060330	Edakkara Bus Stand	
2885383658	9.9771110	76.5797924	KSRTC	
2889233312	8.5707115	76.9872571		bus_stop
2895321492	9.8186068	77.0247889	10th Mile Bus Stop;10th mile	bus_stop
2895330135	9.7957732	77.0589991	Vazhavara Bus Stop	bus_stop
2895536825	9.7431497	77.1127635	Ambalakkavala Bus Stop	bus_stop
2895647512	9.7447925	77.1016133	Irupathekkar Bus Stop	bus_stop
2896634153	9.7524915	77.1095941	ITI Junction	bus_stop
2897254089	9.2671433	76.7895169	Pathanamthitta KSRTC bus stand	
2897449508	9.3050123	76.8037056		bus_stop
2904289089	9.1737306	76.5006206	Kayamkulam Private Bus Stand	
2904558003	9.1738780	76.6085543	Charummoodu	bus_stop
2904558026	9.1745740	76.6076703	Charummoodu	bus_stop
2904558054	9.1735875	76.6078063	Charummoodu	bus_stop
2904558223	9.1729524	76.6082487	Charummoodu	bus_stop
2904588077	9.1746749	76.6295739	ITBP Junction	bus_stop
2904589718	9.1749309	76.6126393		bus_stop
2908919978	9.3461559	76.5354528	Alumthuruthy Bridge bus stop	bus_stop
2909563043	9.5609335	76.8113637	26 Mile Bus Stop	bus_stop
2910482049	9.3627211	76.6677419	Muttumon	bus_stop
2910893366	9.3105910	76.7266623	Nellikkala	bus_stop
2913822270	9.3604063	76.7874920		bus_stop
2913831391	9.3780115	76.7793302	Ranni Bus stand	
2913849280	9.3826806	76.7822765	Mamukku	bus_stop
2913888530	9.3828959	76.7820935	Mamukku	bus_stop
2913899324	9.3941722	76.7941473		bus_stop
2914207000	9.5054324	76.7511317	Mooleplavu Valavu	bus_stop
2914322924	9.5407919	76.7625133	Shappupadi	bus_stop
2914322938	9.5443297	76.7644304	Chirakkadavu Ampalam	bus_stop
2914322947	9.5432436	76.7630182	Adichumakkal Palam	bus_stop
2914334997	9.5538122	76.7602301	Parakkadavu	bus_stop
2916974293	9.9026373	76.7248837	Mangattukavala Bus Stand	
2917357737	9.4460338	76.6573806	Mallappally Bus Stand	
2918212885	9.2495735	76.5783494	Eravankara	bus_stop
2918459120	9.3266417	76.6882575	Temple Bus stop	bus_stop
2919849412	9.4653395	76.3602777	Pallathuruthy West	bus_stop
2919850685	9.4630455	76.3648201	Pallathuruthy East	bus_stop
2920194581	9.4435115	76.5442370	Changanassery Perunna Private Bus Stand	
2920441911	9.3821851	76.3876126	Karumadi jn	bus_stop
2920447292	9.3734811	76.4105556	TSSGUP School	bus_stop
2921680352	9.6814113	76.9072010	Vagamon Junction	bus_stop
2923441825	9.9687963	76.3217495	Vyttila	bus_stop
2925955579	10.7820516	76.2787686		bus_stop
2926165961	10.7598334	76.2725545	Shornur Railway Station	bus_stop
2928886789	10.0717346	76.2119072	Nayarambalam	bus_stop
2930636731	10.3430800	76.2149771	chandakunnu stop	bus_stop
2930749332	10.3412039	76.2772714	kallettumkara pallinada jn	bus_stop
2933131841	8.7700796	76.8786440	Kilimanoor Private Bus Stand	
2934059202	10.6024279	76.0350876	Mammiyoor Junction	bus_stop
2934096620	10.5820424	76.0222013	Chavakkad	
2934122525	10.6060295	76.0374416	Little Flower College	bus_stop
2934145275	10.6163585	76.0453695	Shavakotta	bus_stop
2935017424	10.2986318	76.2762669	Gramika Bus stop	bus_stop
2937022398	10.6436926	76.0127549	Nayarangadi	bus_stop
2937061331	10.6536305	76.0075789	Manikandeswaram	bus_stop
2937163714	10.7158278	75.9778572	Eramangalam	bus_stop
2937264304	10.7402997	75.9729829	Adhikaripadi	bus_stop
2937264322	10.7336483	75.9748979	Maranchery Center	bus_stop
2937264516	10.7407187	75.9705018	Mukkala	bus_stop
2938510919	10.4724065	76.0993150	thanapadam bus stop	bus_stop
2939865525	12.2321387	75.3925876	Koodapram Bus Stop	bus_stop
2940067601	11.2993122	75.8026980		bus_stop
2965439530	10.1484765	76.2447257	Vedimara	bus_stop
2965446278	10.1489359	76.2350714	Chendamangalam Junction	bus_stop
2965448787	10.1464052	76.2532494	Mannam	bus_stop
2965453933	10.1458867	76.2570175	Paarappuram	bus_stop
2965463994	10.1333306	76.2751358	Karichira	bus_stop
2965467030	10.1308355	76.2875338	Purapillikavu	bus_stop
2965468064	10.1311535	76.2825317	Thattampady	bus_stop
2965468920	10.1319667	76.2793374	Marottichuvadu	bus_stop
2965470242	10.1302570	76.2931177	Karumaloor	bus_stop
2976976829	11.5357745	75.8554655		
2985920870	12.1688390	75.1765040	Thadiyan Kovval	bus_stop
2985967968	12.1768989	75.1736730	Maniyat Bus Stop	bus_stop
2985971221	12.1734339	75.1750285		bus_stop
2986043518	12.1439742	75.1772985	Trikaripur	bus_stop
2986049443	12.1438332	75.1822526	Thankayam Mukku	bus_stop
2986053030	12.1546371	75.1804653	Koyonkara Bus Stop	bus_stop
2986102595	12.1732663	75.1948843	Onakunnu Bus Stop	bus_stop
2986490023	12.1859167	75.1705057	Police Station Bus Stop	bus_stop
2986490564	12.1840052	75.1710830	Chandera	bus_stop
2986495613	12.1818687	75.1718208	Maniyat Bank Bus Stop	bus_stop
2988964533	9.7502593	76.3984906	Vaikom Dhalavakulam New Private Bus Stand	bus_stop
2995292443	11.2792392	75.7625179	Konad Beach	bus_stop
2997105150	10.3775153	76.2199046	Mapranam	bus_stop
2997689672	11.2871327	75.7980752	IQRAA Hospital	bus_stop
3007237091	9.6465232	76.7530415	Mulakoli Bus Stop	bus_stop
3028236957	11.5335296	75.8661210	Illipilayi bus stop	bus_stop
3028236968	11.5401860	75.8430703	Koorachundu Bus Stand	
3028423926	11.5295341	75.8884055	28th Mile	bus_stop
3098330737	9.5469821	76.7937551	Mannarakkayam	bus_stop
3098922017	9.5916772	76.9685473	Ashley Bus Stop	bus_stop
3103491759	10.6748071	76.6134379	Panayanchira	bus_stop
3106190998	10.1206148	76.5562147		bus_stop
3129241217	9.6209953	76.6657732	Moozhoor	bus_stop
3129241341	9.6149636	76.6715147	Tharakunnu	bus_stop
3133561980	9.8465080	76.3841681	poothotta new bus stand	
3135985904	9.8182484	77.1196137	Aasarikavala Bus Stop	bus_stop
3139178939	9.4336660	76.6291230	Chengaroor Chira	bus_stop
3139478629	9.5099482	76.5518112	Saintgits college bus stop	bus_stop
3165936526	8.5506273	76.8769142		bus_stop
3188487625	10.9557752	76.0667984	Moochikkal	bus_stop
3190301821	9.6023261	76.7029810		bus_stop
3190302412	9.6352111	76.7163455	Jeerakathupadi	bus_stop
3202883730	10.2271375	76.2002690	കിഴക്കേ നട ബസ് സ്റ്റോപ്പ്‌	bus_stop
3244263682	11.7503058	76.0123780	Kommayad Stop	bus_stop
3263596457	8.5678372	76.9441908	Periyancode	bus_stop
3264891220	9.5601593	76.7205518		bus_stop
3264891237	9.5584636	76.7249837	pothenplackal padi	bus_stop
3264891255	9.5580380	76.7266136		bus_stop
3264893998	9.5554300	76.7300736	sasthankavu	bus_stop
3264911204	9.5473498	76.7473000	Plavolikkavala	bus_stop
3265690944	11.3754760	76.0182089	Adithya Garden & Nursery	bus_stop
3265691245	11.4407772	76.0077831	Millum Padi	bus_stop
3265691409	11.4458405	76.0031440	Ambattu Padi	bus_stop
3265691777	11.4739277	76.0032351	Knowledge City	bus_stop
3266622258	8.8845637	76.5910204		bus_stop
3268346929	8.7597146	76.7822715	Mavinmood	bus_stop
3276153651	9.9629622	76.3183249	Sub Station	bus_stop
3283733482	9.5557575	76.7580748	Manjappallikkunnu	bus_stop
3283738049	9.5642523	76.7355465	19th Mile	bus_stop
3283740105	9.5397099	76.7422984	Muttathu Kavala	bus_stop
3283740116	9.5368656	76.7459604	Pouvathu Kavala	bus_stop
3283741994	9.5250423	76.7474400	Kailaathukavala	bus_stop
3285844980	9.5236472	76.7630930	Vayanasalappadi	bus_stop
3285896197	9.6202195	76.8225670		bus_stop
3330080253	8.5690062	76.9324367	Palathara	bus_stop
3341035705	9.6596953	76.9943621	4th Mile Bus Stop	bus_stop
3346305526	8.6801857	77.1682110	Bonacaud	bus_stop
3355311182	9.2661831	76.7217061	Muttathukonam	bus_stop
3355311183	9.2673832	76.7248917	Kuttiyilpady	bus_stop
3355377501	9.2714388	76.7359664	Prakkanam	bus_stop
3355425749	9.2643353	76.7148947	Nallanikkunnu Bus Stop	bus_stop
3355428681	9.2642854	76.7110738	Elavumthitta	bus_stop
3355430129	9.2677251	76.7285448	Ovilpeedika	bus_stop
3367437300	10.1005014	76.2639074	Koonammavu	bus_stop
3427120782	9.3829916	76.7088904	Thadiyoor Bus Stop	bus_stop
3445259813	10.7735427	76.6388849	Melamuri	bus_stop
3445267759	10.7706852	76.6371351	Mercy College	bus_stop
3445271899	10.7706487	76.6365074	Mercy College Bus Stop	bus_stop
3445273808	10.7734212	76.6392284	Melamuri	bus_stop
3445280493	10.7749074	76.6313054	Mepparamba	bus_stop
3445280556	10.7684072	76.6460557	Nurani Bus Stop	bus_stop
3445280752	10.7748779	76.6316489	Mepparamba	bus_stop
3445282443	10.7707571	76.6370259	Mercy College	bus_stop
3445283800	10.7707064	76.6367306	Mercy College	bus_stop
3445284252	10.7700510	76.6415065		bus_stop
3445284253	10.7699673	76.6415293		bus_stop
3446668842	8.9127866	76.5474779	Murighikka mukk	bus_stop
3446668887	8.9141815	76.5468415	Vasupillai Junction	bus_stop
3447915389	9.2288446	76.8483014	Konni	
3448219354	8.8869627	76.5753076	Aaltharamoodu	bus_stop
3452071462	9.2649460	76.8062985	Kumbazha	bus_stop
3466720242	10.7900908	76.2779624	jolsyanpadi	bus_stop
3466732840	10.7947950	76.2789757	kinattinkara	bus_stop
3466732880	10.8022852	76.2789903	Kulam stop	bus_stop
3466733323	10.8104053	76.2800663	Mambattappadi	bus_stop
3480866652	9.0244109	76.8467574		bus_stop
3493797805	10.8782720	76.4811062	Company Padi	bus_stop
3495483099	9.9259833	76.7078451	Para	bus_stop
3512712764	9.1023880	76.8369153	Puthuval	bus_stop
3512712769	9.1082634	76.8313371	Maroor	bus_stop
3512712770	9.1160458	76.8253887	Chankoor	bus_stop
3512712772	9.1262221	76.8177110	23 junction bus stop	bus_stop
3512712775	9.1300338	76.8144356	Bank padi Junction	bus_stop
3512712777	9.1332189	76.8090338	theatre junction bus stop	bus_stop
3512712779	9.1412343	76.7897061	Mangadu	bus_stop
3512712783	9.1386176	76.8016131	Pattazhy muku bus stop	bus_stop
3512712784	9.1435444	76.7814916	Pattazhy Mukku	bus_stop
3512712786	9.1426606	76.7789565		bus_stop
3512712788	9.1448551	76.7695743	Ezhamkulam	bus_stop
3512712791	9.1480475	76.7609606		bus_stop
3522855867	9.0061115	76.7960563	"Bus Stop, Padinjaretheruvu"	bus_stop
3522855869	9.0040709	76.8001097		bus_stop
3522862106	9.0108312	76.8189117	Aroma Hospital	bus_stop
3523082370	8.9558331	76.6704950	Elampalloor	bus_stop
3523084978	8.9769380	76.7034693	Nedumpayikkulam	bus_stop
3523087725	8.9839983	76.7320318	അമ്പലത്തുംകാല	bus_stop
3523087727	8.9929025	76.7498711	നെടുവത്തൂർ	bus_stop
3523087728	8.9964906	76.7540831	Plamoodu	bus_stop
3523087729	8.9968381	76.7565557	Thamarassery	bus_stop
3523087730	8.9990648	76.7662956	Railway Station	bus_stop
3526233529	8.8985287	76.8596861	ആയൂർ	
3539029800	10.3722109	76.2211024	Mapranam Center	bus_stop
3558425026	11.1412101	76.1000991	Half Kidangazhi Bus stop	bus_stop
3559083015	11.1310514	76.1139182	Nelliparamba	bus_stop
3559090012	11.1373426	76.0914206	Ramankulam Bus Stop	bus_stop
3560223890	11.1450446	76.0965343	Kidangazhi Bus Stop	bus_stop
3560226712	11.1378717	76.1027301	Pullur Bus Stop	bus_stop
3587828829	9.0907299	76.8564870	Pathanapuram	bus_stop
3613130792	9.5184030	76.8897642	Karinilam Bus Stop	bus_stop
3613130927	9.4923859	76.8708581	Paramada Bus Stop	bus_stop
3619280440	10.4378457	76.2100836		bus_stop
3624317220	9.4996741	76.3290309	Savakotta Palam	bus_stop
3625644808	9.0482429	76.8556247		bus_stop
3645431987	10.6132839	76.1978065		bus_stop
3647690628	11.2503162	75.7800836	City Stand Calicut	bus_stop
3656657075	9.1736260	76.5842445	Vettikkodu	bus_stop
3663134949	10.7774404	76.3441646		bus_stop
3663271101	10.8325111	76.4163216		bus_stop
3663324758	10.8327734	76.4115202	Bus Stop	bus_stop
3663324759	10.8312729	76.4119174		bus_stop
3663335714	9.0217657	76.8463284	Kunnikode Pulimukku	bus_stop
3663441727	10.7728609	76.3793365		bus_stop
3663929135	10.8329458	76.4292778	Bus Stop	bus_stop
3663929136	10.8312118	76.4263170	Bus Stop	bus_stop
3663929137	10.8331211	76.4321789	Bus Stop	bus_stop
3663929138	10.8311769	76.4231633		bus_stop
3663961601	10.7683589	76.4019383	Kairampara Bus Stop	bus_stop
3663962672	10.7561592	76.4054198	Kendriya Vidyalaya Ottapalam Bus Stop	bus_stop
3663962673	10.7622246	76.4044060	Bus Stop	bus_stop
3663966543	10.8336466	76.4397253	Bus Stop	bus_stop
3663966544	10.8346424	76.4419194		bus_stop
3663966546	10.8331987	76.4375420	Bus Stop	bus_stop
3663966994	10.7738415	76.3871927		bus_stop
3663966996	10.7706250	76.3968743		bus_stop
3663966997	10.7731756	76.3901313	Bus Stop	bus_stop
3663966999	10.7729227	76.3899757	Bus Stop	bus_stop
3663970104	10.7729806	76.3795365		bus_stop
3663971711	10.7669466	76.4070506		bus_stop
3663971712	10.7702139	76.4187239		bus_stop
3663974440	10.7748279	76.4314732		bus_stop
3663975317	10.7761320	76.3923682	Bus Stop	bus_stop
3663975960	10.8019477	76.4051034	Bus Stop	bus_stop
3663976172	10.7845478	76.3953669	Bus Stop	bus_stop
3663976173	10.7893809	76.4015391	Bus Stop	bus_stop
3663976174	10.7861445	76.3979636	Bus Stop	bus_stop
3663976175	10.7876540	76.3994115	Bus Stop	bus_stop
3663976189	10.7979377	76.4032848	Bus Stop	bus_stop
3663976190	10.7926004	76.4023288	Bus Stop	bus_stop
3663977283	10.8077387	76.4062460		bus_stop
3663977284	10.8077967	76.4076836		bus_stop
3663977285	10.8057575	76.4075656		bus_stop
3663977286	10.8099781	76.4093788		bus_stop
3663978678	10.8184246	76.4111598		bus_stop
3663978679	10.8151894	76.4112617		bus_stop
3663978680	10.8133926	76.4109345		bus_stop
3663978729	10.8215860	76.4093198		bus_stop
3663978730	10.8279088	76.4115407		bus_stop
3663978731	10.8256126	76.4091051		bus_stop
3663978925	10.8298549	76.4178169	Bus Stop	bus_stop
3663978926	10.8290328	76.4220233	Bus Stop	bus_stop
3663979027	10.8322503	76.4485605	Bus Stop	bus_stop
3664130320	10.7820873	76.2786167	bus stop	
3664130321	10.7816288	76.2802395		bus_stop
3668490699	11.2615317	75.7946242		bus_stop
3670738749	10.1506466	76.2683658	Manjaly Akkara	bus_stop
3676241133	10.1264765	76.3209677	Mariyapadi	bus_stop
3676244636	10.1368908	76.2696975	Manakkapadi	bus_stop
3676244647	10.1485159	76.2279749	Namborichante aal	bus_stop
3676397041	10.1492680	76.2356058	Chendamangalam Junction	bus_stop
3684507855	10.9660987	75.8850984	Moolakkal	
3684508482	10.9779156	75.8805390	Tanur	
3687421346	10.1957156	76.2915147	kalyad Bus stop	bus_stop
3691544496	11.6545265	75.7514354	Kuttiady New Bus Stand	
3696594407	11.2852600	75.7919574	Civil Station	bus_stop
3698156460	10.5114252	76.2209712	Mundupalam Bus Stop	bus_stop
3698156461	10.5035260	76.2260279	Kuriachira Centre Bus Stop	bus_stop
3699617507	10.5195977	76.2160198	Muncipal Stand	bus_stop
3704352117	10.5200801	76.2223196	Mission Quarters	bus_stop
3704352119	10.5230169	76.2172349		bus_stop
3704352120	10.5221569	76.2275485	Lourde Church	bus_stop
3704352121	10.5222736	76.2274992		bus_stop
3704352122	10.5145421	76.2228071		bus_stop
3704352123	10.5160831	76.2152422		bus_stop
3704352124	10.5276540	76.2146000	Bini	bus_stop
3704358726	10.5233222	76.2171850	District Hospital Bus Stop	bus_stop
3709585905	10.7569398	76.0543905		bus_stop
3711605443	10.1488947	76.2304841	Civil Station	bus_stop
3712973674	10.8904776	75.9203745	Mangattiri	bus_stop
3738004877	11.8541416	75.5670774	Nirmalagiri	bus_stop
3738004879	11.8566314	75.5664911	Nirmalagiri College	bus_stop
3750781760	8.5463261	77.0639830		bus_stop
3752972818	11.3259726	75.7901239	parthasarathy bus station	
3753015137	11.3346424	75.7717550	Cherukulam Bus Station	
3753040131	11.3273129	75.7844462	ottathenghe bus stop	bus_stop
3753048764	11.3096265	75.7852807	Mallikadave Bus Stand	
3757483597	11.3676983	75.8641591	Narikkuni Bus Stand	
3757484546	11.3813158	75.8701043	Kavumpoyil	bus_stop
3757485190	11.3842428	75.8752290	Karukulangara	bus_stop
3757570178	11.3054419	75.8779798	Kunnamangalam Old Bus Stand	bus_stop
3762751258	10.7701733	76.6275189	krishna road	bus_stop
3765286472	11.3830147	75.9814399	Perivilly	bus_stop
3765286554	11.4008212	75.9901793	Maikave jn	bus_stop
3765302332	11.4029965	75.9768351	Maikave	bus_stop
3765302340	11.4046181	75.9739375	Shappum Padi	bus_stop
3765302968	11.4024395	75.9662408	School Padi	bus_stop
3765303003	11.3988215	75.9605384	Kollan Padi	bus_stop
3767587315	10.8061996	76.6364032		bus_stop
3773149793	12.0566479	75.6285790	Anayadi	bus_stop
3801934293	9.3631864	76.8905011	Puthukkada Bus Stop	bus_stop
3802374274	11.6608987	75.7962589	Kothod Bus Stop	bus_stop
3804466113	9.3599407	76.8840519	Koonamkara College Junction	bus_stop
3804824290	9.3618255	76.8763343	Vayaranmaruthi Bus Stop	bus_stop
3806321994	9.3541504	76.8354703	Bus Stop	bus_stop
3807984419	9.4214133	76.9698256	Aithalappadi Bus Stop	bus_stop
3808120888	9.4297869	76.9404973	Azhuthai Bus Stop	bus_stop
3808120917	9.4647231	76.9623316	Koonilkadavu Bus stop	bus_stop
3808155019	9.4804422	76.9478505	Pallipadi Bus stop	bus_stop
3808166921	9.5089929	76.9166177	Panakkachira Bus stop	bus_stop
3811026548	9.3875221	76.8431476	Athikkayam	
3812199111	9.4250811	76.8560903	Punchirimukku Bus Stop	bus_stop
3812254105	9.4817991	76.9266056	Mangapetta Bus Stop	
3812342517	9.4078373	76.8666504	Paruva-Kattikkal Bus Stop	
3813525947	10.0397032	76.3007241	Vai padi	bus_stop
3813553621	9.4549210	76.8664126	MES College Bus Stop	bus_stop
3813693822	9.5356953	76.8869255		bus_stop
3813702505	9.4977112	76.8732788	Madampadi Bus Stop	bus_stop
3815471775	11.8280252	75.5036990	Mambaram Bus Stop	bus_stop
3815471776	11.8284000	75.5048888	Mambaram Bus Stop	bus_stop
3815471777	11.8284410	75.5046362	Mambaram Bus Stop	bus_stop
3816492337	11.8510011	75.4167793	ITI Kannur Stop	bus_stop
3816579588	9.5714763	76.9963813	Peerumade bus stop	bus_stop
3816579609	9.5735134	77.0594017	56th Mile Bus Stop	bus_stop
3816580638	9.7414452	77.0909443	Nariyampara Bus Stop	bus_stop
3816607833	9.5780843	77.0970803	Kakki Kavala Bus Stop	bus_stop
3816643550	9.6974685	77.1648916	Unian Bank ATM	bus_stop
3816675200	9.5373824	76.9101883	Medical Trust hospital Bus Stop	bus_stop
3816675216	9.5375206	76.9024420	35th Mile Junction	bus_stop
3816854011	9.7531258	77.1273570	Parakkadavu Bus Stop	bus_stop
3818298211	11.8925493	75.8213720	Erattathode Bus Stop	bus_stop
3818668331	11.6541685	75.7531435	Kuttiady Bus Stand	
3832608405	10.8121945	76.6359468	Colony Church	bus_stop
3834118920	9.4766907	76.8733444	Peroorthodu Bus Stop	bus_stop
3839328223	11.0504993	75.9770984	bus stand vengara	
3844271357	10.1496989	76.2349266	Chendamangalam Junction	bus_stop
3846355246	11.4540918	76.0131134	Chooramunda	bus_stop
3864435009	10.0722225	76.2827585	Cheranalloor Ferry Bus Station	
3864767757	10.0212159	76.3346249	NGO Quarters	bus_stop
3864963999	8.4894135	76.9473799	Overbridge	bus_stop
3870703091	10.0363037	77.1227489	Gap Road Bus stop	bus_stop
3870727313	10.0145846	76.2277549	Valappu	bus_stop
3870727315	10.0254731	76.2236733	Perumalppadi	bus_stop
3872684380	9.5040282	76.7494817	Mooleplavu	bus_stop
3872787746	10.7769606	76.1637660	Kakkarath Padi	bus_stop
3872789184	10.7797955	76.1652563	Mattaya	bus_stop
3872826044	10.8012672	76.1791235	Pattambi Bus Stand	
3872842265	10.7845195	76.1705868	Nhangattiri	bus_stop
3883265125	11.0425516	76.0800732	മലപ്പുറം കെ.എസ്.ആർ.ടി.സി	
3885008006	10.5135694	76.2441537	Vatta Kinar	bus_stop
3886536252	9.9834606	76.2742889	High Court Junction	bus_stop
3897172750	10.9848344	76.1254816	Paravakkal	bus_stop
3897174242	10.9832106	76.1311661	Lakshamveed	bus_stop
3906562538	8.5225080	76.9300559	Medical College	
3906885183	8.8763043	76.6236602	Pallimukku from Kollam	bus_stop
3906960411	8.9054391	76.5676558	Irattakkadavu	bus_stop
3906960414	8.9004887	76.5642398	Vellayittayambalam	bus_stop
3906960415	8.8925339	76.5686407	Anchukallummoodu	bus_stop
3906976442	8.8825221	76.5694202	Thangassery Bus Station	
3906976443	8.8861769	76.5713759		
3922107502	11.6176602	76.2128479	Ambalavayal Bus Station	bus_stop
3927476346	9.6053593	76.3604839	Muhamma	bus_stop
3931688819	8.6048537	76.9267681	Panthalacode	bus_stop
3949925588	11.3858059	76.0726242	Medappara Jn	bus_stop
3949932700	11.3712506	76.0579851	Urumi	bus_stop
3949979189	11.3916181	76.0754252	Anakallumpara	bus_stop
3949998325	9.4901671	76.3211458	Kadappuram	bus_stop
3951259952	9.3525874	76.5925775	Arattukadavu	bus_stop
3951275215	9.3980471	76.5661957	Muthoor	bus_stop
3951434588	9.4850082	76.3226246	Alappuzha Railway Station	
3951449018	9.4907799	76.3235437	Rubber Factory	bus_stop
3951449260	9.4917721	76.3260587	Zachariya Bazar Bus Stop	bus_stop
3951450910	9.4923206	76.3292802	Collectorate	bus_stop
3951452775	9.4919108	76.3337899	Vellakkinar	bus_stop
3951453329	9.4949256	76.3434663	Kallupalam	bus_stop
3951453331	9.4985223	76.3388166	Pichu Iyer Junction	bus_stop
3951453377	9.4921848	76.3385739	Medical Junction Bus Stop 2	bus_stop
3951453942	9.4951950	76.3391754	Iron Bridge	bus_stop
3951455500	9.4981318	76.3390192	Pichu Iyer Junction	bus_stop
3951457023	9.5006465	76.3443844	Boat Jetty	bus_stop
3951458090	9.5009932	76.3412992	SDV School Bus Stop	bus_stop
3951466652	9.5005445	76.3416102	Mavinchuvadu	bus_stop
3952059878	8.4128296	76.9712322		bus_stop
3952059879	8.4130521	76.9713133		bus_stop
3953231038	8.4231200	76.9675459		bus_stop
3956546173	8.5029182	76.9505690	Connemara Market	bus_stop
3956546174	8.5032445	76.9526044	Bakery Junction	bus_stop
3956556899	8.5084394	76.9497816	PMG	bus_stop
3960106943	9.4906807	76.3235220	Rubber Factory	bus_stop
3960116859	9.6885080	76.9061324	vagamon bs	bus_stop
3960240607	9.4819279	76.3370907	Thiruvambadi Junction Bus Stop	bus_stop
3960881165	8.5083775	76.9541034	Museum	bus_stop
3960881419	8.4972225	76.9483446	Statue	bus_stop
3966757796	9.4982282	76.3443963	Pazhavangadi Junction	bus_stop
3966774353	9.5008633	76.3387667	YMCA	bus_stop
3966786514	9.4922631	76.3289938	Collectorate	bus_stop
3981233558	9.4512753	76.3417267	Paravoor	bus_stop
3981234346	9.4514638	76.3414658	Paravoor North Side Bus Stop	bus_stop
3984487190	8.9008193	76.7140106	Pallimon junction	bus_stop
3984497175	8.9086856	76.7178424	Vattavila Junction	bus_stop
3984771261	9.4918767	76.3334871	Vellakinar west side Bus Stop	bus_stop
3993143188	8.5466721	76.9054082	Engineering College	bus_stop
3995671170	10.3585593	76.2186850	SN Bus stop	bus_stop
3995681539	10.3862003	76.2207492	Puthenthode	bus_stop
3996656188	9.9501190	76.2920811	Thevara	bus_stop
3996661158	9.9591537	76.2889962	Ravipuram	bus_stop
3996894847	9.5133262	76.8884416	Amaravathi Bus Stop	bus_stop
3997071888	9.2818505	76.5856034	Cheriyanad railway overbridge bus stop	bus_stop
4000224792	8.7569543	76.7226148		bus_stop
4000226311	8.7741130	76.7387363		bus_stop
4002107005	9.8173620	77.1030753		bus_stop
4007356918	9.7168731	76.9485593	Kuvalettam Bus Stop	bus_stop
4007356931	9.7170664	76.9826249	Omega Bus Stop	bus_stop
4026442848	8.9141519	76.7212836	Thadathilmukku junction	bus_stop
4031454946	8.9016838	76.6826937	Vadakkemukku	bus_stop
4031454947	8.9077591	76.6827103	Palamukku	bus_stop
4031454948	8.8941641	76.6811357	Kannanalloor	bus_stop
4045228424	9.5955110	76.5283148	Nagampadam Bus Terminal	bus_stop
4047071330	9.6114690	76.5333026	Chavittuvari Bus Stop	bus_stop
4047071333	9.6035582	76.5320409	Choottuveli Bus Stop	bus_stop
4047071365	9.6076239	76.5317881	Madam	bus_stop
4047071385	9.5920208	76.5232780	Shastri Road Bus Stop	bus_stop
4049955938	9.6709936	76.5601171		bus_stop
4051411400	9.6841316	76.6115808	Kidangoor Bus Stop	bus_stop
4061711338	10.9747490	76.2324795		bus_stop
4061712226	10.9751197	76.2144589		bus_stop
4061725937	10.9757097	76.2268629		bus_stop
4061744609	10.9753546	76.2277659		bus_stop
4061810161	10.9768418	76.2189434		bus_stop
4061811088	10.9772378	76.2198393		bus_stop
4061811133	10.9768333	76.2218679		bus_stop
4061820013	10.9768055	76.1989968		bus_stop
4061831949	10.9773239	76.1989555		bus_stop
4061833043	10.9775387	76.1986885		bus_stop
4061862006	10.9775298	76.2018465	Angadipuram Bus Stop	bus_stop
4062159951	10.9777127	76.2019850	Angadipuram Bus Stop	bus_stop
4062169613	10.9827592	76.2206078		bus_stop
4062169620	10.9750933	76.2253139	Perinthalmanna Kodathi Padi Bus Stop	bus_stop
4062175602	10.9762387	76.2235450	Perinthalmanna Bus Stop	bus_stop
4062196490	10.9779942	76.2074088		bus_stop
4062197341	10.9858181	76.2222707		bus_stop
4062238606	10.9748230	76.2297914	BUS Stop Perinthalmanna	bus_stop
4062245098	10.9751795	76.2254736	Perinthalmanna Kodathi Padi Bus Stop	bus_stop
4062919289	10.9747139	76.2332632	BUS Stop Perinthalmanna	bus_stop
4062919389	10.9749734	76.2302827	BUS Stop Perinthalmanna	bus_stop
4062919589	10.9781155	76.2256192	Pattambi cherpulassery	bus_stop
4067080592	10.9778771	76.2081107		bus_stop
4085923815	11.6407893	75.8035657	Mullankunnu Bus Stop	bus_stop
4099056290	8.9040875	76.6229407	Kallumthazham mevaram bus stop	bus_stop
4100237990	10.4303226	76.2166684	Urakam	bus_stop
4100480028	9.5328433	76.5229450	Pannimattom Junction	bus_stop
4100480217	9.5244831	76.5248994	Gomathy Kavala Junction	bus_stop
4102699591	9.9793518	76.4762765	"Medical Mission, കോലഞ്ചേരി"	bus_stop
4102711889	9.9551555	76.3960273	Panikkarupadi	bus_stop
4106874989	10.7439301	76.2742088	chunkam	bus_stop
4106875089	10.7447350	76.2481721	Khadar Pallam	bus_stop
4111044089	10.6989707	75.9602837	Palappetty center	bus_stop
4111297746	11.6434672	76.0032772	HS Junction	bus_stop
4111314394	9.5252661	76.5529749	Parakkulam Kurishu	bus_stop
4111314494	9.5253030	76.5511370	Parakkulam	bus_stop
4111314793	9.5560104	76.5363711	Nalkavala	bus_stop
4111314794	9.5543754	76.5294606	Kaduvakulam	bus_stop
4118153374	8.5509174	76.9108911	Chavadimukku	bus_stop
4118153375	8.5510120	76.9115703	Chavadimukku	bus_stop
4118603693	10.2400982	76.2790784	kottamury bus stop	bus_stop
4118622091	10.2308983	76.2897708	snehagiri church bus stop	bus_stop
4118630290	10.1684934	76.3402155	poikkattussery bus stop	bus_stop
4118630691	10.1752426	76.3304103	Priya Hospital Bus Stop	bus_stop
4118630791	10.2073931	76.3219400	janathi junction bus stop	bus_stop
4118630792	10.2117032	76.3220862	poovathussery ambalanada bus stop	bus_stop
4118630889	10.1787281	76.3302319	Kurumassery Aluva Bus Stop	bus_stop
4118631290	10.2056833	76.3218314		bus_stop
4118651690	10.2371630	76.2780259	plavumurry bus stop	bus_stop
4118652989	10.2347691	76.3286964	annanada ambalanada bus stop	bus_stop
4118653289	10.2328255	76.2805392	holy grace bus stop	bus_stop
4121560491	10.7439149	76.2741844	Chungam-Cheruthuruthy	bus_stop
4121560492	10.7407359	76.2746807	Cheruthuruthy School Bus stop	bus_stop
4121578089	10.7312481	76.2825796	Vettikattiri Bus stop	bus_stop
4121698744	9.5370498	76.3272073	Pathirappally	bus_stop
4121704854	9.5319336	76.3272785	Homco Bus Stop	bus_stop
4122316589	9.7848609	76.6039641	Chirakkulam	bus_stop
4122379790	10.3471894	76.2177977	Tana Bus Stop	bus_stop
4122380589	10.3649945	76.2189091	Kattungachira	bus_stop
4122380590	10.3534868	76.2180649	Christ College Road Bus Stop	bus_stop
4122380789	10.3493727	76.2171363	Poothakulam Bus Stop	bus_stop
4122380790	10.3460217	76.2167015	Irinjalakuda Bus Stop	bus_stop
4122489991	10.2322670	76.3204375	peedikakunnu bus stop	bus_stop
4122499590	9.5404139	76.5213723	Karamood	bus_stop
4122499591	9.5609720	76.5428952	Boat jetty	bus_stop
4122530889	10.1881616	76.3281690	Moozhikulam	bus_stop
4122530990	10.2319387	76.3160185	edayattoor bus stop	bus_stop
4122546589	9.5478458	76.5264034	Plamood Jn	bus_stop
4122546689	9.5362522	76.5215561	Illimood Junction	bus_stop
4122546691	9.5596155	76.5154200	Mulamkuzha	bus_stop
4122546889	9.5890595	76.5528449	Kalathipady	bus_stop
4124942291	10.6919314	75.9623546	caprikkad	bus_stop
4124942298	10.6946633	75.9611211	Dubai padi bus stop	bus_stop
4131792494	11.2969671	75.8360807	Moozhikkal	bus_stop
4131792595	11.2969341	75.8360594	Moozhikkal Bus Stop	bus_stop
4131792596	11.2967748	75.8348991	Moozhikkal Medical College Bus Stop	bus_stop
4131814589	11.2968746	75.8344011	Moozhikkal Parambil Bazar Bus Stop	bus_stop
4141362300	11.1387613	75.8659422	KOLAKUTH BUS STOP	bus_stop
4153937389	10.6919549	75.9623923	Kaprikad bus Stop	bus_stop
4154751790	10.9743569	76.2258777	Perinthalmanna Kodathi Padi Bus Stop	bus_stop
4183750825	12.0063084	75.5865285	Kallyad	bus_stop
4183766989	12.0142340	75.6093973	Urathur	bus_stop
4226180689	9.5446452	76.5189936	Pakkil Junction	bus_stop
4239404126	9.5928245	76.5223914	"Baker Junction, Kottayam"	bus_stop
4240863389	12.0750373	75.5004614	Nediyanga	bus_stop
4245442840	9.3972638	76.5662555	Muthoor	bus_stop
4250487250	10.5450125	76.2885444	Thottapadi bus stop	bus_stop
4250493078	10.5309423	76.2587766	Mannuthy Bypass Bus stop	bus_stop
4250502903	10.6194564	76.0474524	Kottappady center	bus_stop
4250505261	10.5458022	76.2265939	vayanashala bus stop	bus_stop
4250505404	10.5481622	76.2269747	Cheroor well stop	bus_stop
4250515530	10.5288815	76.2556955	Ollukara Bus Stop	bus_stop
4250525090	10.5248230	76.2521657	kalathode bus stop	bus_stop
4250567794	10.3656262	76.2187526	bus stop	bus_stop
4250572223	10.6204023	76.0504884	arivalchuttika bus stop	bus_stop
4250574619	10.3447639	76.2303374	manthripuram	bus_stop
4251936238	10.4067757	76.2144315	Cheriyapalam Bus Stop	bus_stop
4251985250	10.3814830	76.2199132	thelapilly bus stop	bus_stop
4252110263	10.7594234	76.0153589	Kalachal Bus stop	bus_stop
4252110897	10.4976038	76.1802026	St Aloysius Bus Stop	bus_stop
4252182493	10.6008084	76.0590401	thaikkad bus stop	bus_stop
4252254381	10.6009854	76.0606973	Chowallurpadi Bus Stop	bus_stop
4252258267	10.6141302	76.0874046	koonamuchi busstop	bus_stop
4252297328	10.3801933	76.2256755	church stop	bus_stop
4263833390	10.2351956	76.4189009	"Prasad Traders, Sehiyon Jn, Kokkunnu, Mookkannoor"	bus_stop
4264878789	9.4064657	76.4129875	Champakulam Bus Stand	bus_stop
4264878889	9.4087506	76.4098257	Champakulam-Poopally Bus Stand	bus_stop
4270131792	10.1307559	76.3902447	Thettaly	bus_stop
4270140391	10.1320525	76.3996667	Kaipra	bus_stop
4279628189	10.1903408	76.4764861	"Plappilly Kavala Bus Stop, Neeleeswaram Mundangamattom Road"	bus_stop
4283458191	10.7645046	76.1958721	Ezhumangad	bus_stop
4283497689	10.7333387	76.1602631	Karukaputhur	bus_stop
4283498089	10.7750726	76.1656927	Vattolikkavu	bus_stop
4286649742	10.0170702	76.4284047	Pazhamthottam	bus_stop
4290205591	10.1223671	76.3668073	Gandhipuram	bus_stop
4290219991	10.1858129	76.3973712	Nayathod Junction	bus_stop
4291964894	10.0811722	76.3482038	Kunnatheri Junction	bus_stop
4291964895	10.1282229	76.3725752	Kondotty	bus_stop
4292013891	10.1280053	76.3692844	Purayar	bus_stop
4292039789	10.0112954	76.3220488	Chembumukku	bus_stop
4292205903	10.6661583	76.2543865	ottupara bus stand	
4292206989	9.6025370	76.5175125	Chungam	bus_stop
4292206990	9.6125014	76.4979104	Aymanam	bus_stop
4292210589	9.6128332	76.5074098	Kudayampadi	bus_stop
4292803732	10.3543271	76.1123197	Chamakkala beach	bus_stop
4292824609	10.4029664	76.2159447	vallyapalam	bus_stop
4292838713	10.6024363	76.0656761	Kandanassery bus stop	bus_stop
4292856546	10.6392529	76.1540868	Ground bus stop	bus_stop
4292866178	10.6327179	76.1420636	"Thalakkottukara,Chanthappadi bus stop"	bus_stop
4292868509	10.3450815	76.2337373	Mission hospital bus stop	bus_stop
4292868510	10.3432257	76.2368123	Pullur Andi Company Bus Stop	bus_stop
4292868511	10.3429127	76.2391848	School Bus Stop	bus_stop
4292868512	10.3447749	76.2452485	Pulinchode Bus Stop	bus_stop
4292868513	10.3443774	76.2492823	Pullur ITI Bus Stop	bus_stop
4292868514	10.3415890	76.2540132	Thommana Bus Stop	bus_stop
4292868516	10.3423130	76.2597554	Bus Stop	bus_stop
4292868517	10.3421217	76.2659208	Vallakunnu CEnter Bus Stop	bus_stop
4292868530	10.3448603	76.2284948	Bus Stop	bus_stop
4295642486	10.4314494	76.2303418	Paarakulam	bus_stop
4300226389	10.1100516	76.3724534	"Thottumugham , Aluva"	bus_stop
4303510789	10.7970857	76.6387736	Olavakkode Bus Stop	bus_stop
4303510989	10.8359826	76.5735558	Mundur	bus_stop
4305053368	10.9410859	76.1481402	Kolathur Police Station	bus_stop
4308325290	10.8139157	76.0140147	Kandanakam Kerala State Road Transport Corporation	
4312717690	10.7616681	76.1366331	Vavanoor	bus_stop
4312751492	9.6062487	76.5136149	Varisserry	bus_stop
4314549391	11.7641308	75.5110948	Chonadam	bus_stop
4316891635	10.6724547	76.1745139	Bus stop	bus_stop
4316904306	10.6446993	76.1435101	Mythri Bus Stop	bus_stop
4316923787	10.6461472	76.1588427		bus_stop
4316938717	10.6512813	76.1597775	Bus stop	bus_stop
4316946647	10.6501461	76.1743252	Bus stop	bus_stop
4317423195	10.9420756	76.1449417	Kolathur Chanthapad bus stop	bus_stop
4317870497	10.6306559	76.1584122		bus_stop
4320650089	11.2451781	75.9377333	Mundumuzhi	bus_stop
4321531008	10.6403500	76.1759729	chungam	bus_stop
4321531009	10.6304631	76.1717436	Nanupadi	bus_stop
4321531010	10.6241853	76.1674947	Thanal	bus_stop
4321660041	10.6164241	76.1640031	Manapadi Bus Stop	bus_stop
4321660042	10.6175324	76.1641564		bus_stop
4322912493	10.6205687	76.1673989		bus_stop
4323840291	10.8927106	75.8986773	East Arikkanchira	bus_stop
4326397290	10.8545253	76.5396805	Ezhakkad Bus Stop	bus_stop
4326597307	8.7716783	76.6821955	Pakistan Mukku	bus_stop
4329793093	8.8140278	76.7172883	Puthenkulam Junction	bus_stop
4329843791	8.8020785	76.7188760	onninmoodu Junction	bus_stop
4329843792	8.8153848	76.7112074	Vivekodhayam Junction	bus_stop
4333521689	9.1613772	76.7236606	Karuvattapally	bus_stop
4333521789	9.1607242	76.7243144	Holy Cross	bus_stop
4334221796	9.6148720	76.5559703	vellooparambu	bus_stop
4334221797	9.6086414	76.5515832	Puzhithara Padi	bus_stop
4334224693	9.6056641	76.5453874	Kosamattom Kavala	bus_stop
4334306690	9.6131934	76.5598977	Moscow Junction	bus_stop
4334343491	9.5910107	76.5640960	Vadavathoor Junction	bus_stop
4344245248	8.5535101	77.0642796	Poothamcode	bus_stop
4348349601	10.2475698	76.3200790	Kallur Junction	bus_stop
4348995047	10.3623777	76.1081482	Palapetty beach	
4349692589	10.2135950	76.2865014	Parapuram Bus Stop	bus_stop
4349692689	10.2123101	76.2899849	Kuzhur School Bus Stop	bus_stop
4349692789	10.2079142	76.2965911	Kuzhur Bank Junction	bus_stop
4351633724	10.1775036	76.3033311	Aattupuram	bus_stop
4351633725	10.1768565	76.3066100	Ayroor School	bus_stop
4351633726	10.1770615	76.3093030	Oozhan Kavala	bus_stop
4354393904	10.1781007	76.2108439	Andipillikavu	bus_stop
4354393905	10.1787139	76.2086774	Madaplathuruth	bus_stop
4358965279	10.4883540	76.2373929	Christopher Nagar	bus_stop
4358965280	10.4878952	76.2381989	Christopher Nagar	bus_stop
4359010433	10.4926396	76.2321705	Vakayil Bus Stop	bus_stop
4359010434	10.4957511	76.2304072	Chiyyaram	bus_stop
4361725219	10.0162866	76.3022933	Changampuzha Park	bus_stop
4376739876	10.6356736	76.1453343	"Thandilam Vazhi,Bus stop"	bus_stop
4376971814	9.5100575	76.3278632	Kalappura	bus_stop
4377015759	10.1039998	76.5668501		bus_stop
4377208420	10.1212900	76.5690200		bus_stop
4379028308	9.5134794	76.3380258	Kaichoondi Junction	bus_stop
4380314090	10.9774811	76.3216752	ibrahimpadi	bus_stop
4383021591	10.5596295	76.1421109	Mulloor Bus Stop	bus_stop
4383025491	10.5620901	76.1390525	Plavin Chodu Bus Stop	bus_stop
4383202764	10.7454292	76.6507414	Yakkara Junction	bus_stop
4383337049	10.7194870	76.6013803	Kuzhalmannam	bus_stop
4383337050	10.7190482	76.6010972	Kuzhalmannam	bus_stop
4383337051	10.7192954	76.6010086	Kuzhalmannam	bus_stop
4385161243	9.5395365	76.3138960	Ommanappuzha Palli	bus_stop
4385198323	10.0181749	76.4268496	Ambalathazham	bus_stop
4385253512	10.7273345	76.6548691	Kinassery Junction	bus_stop
4385790296	10.7305658	76.6403072	Kannadi Pathikkal bus stop	bus_stop
4385790297	10.7400518	76.6469789	Kazchapparambu	bus_stop
4385790298	10.7397059	76.6464300	Kazchapparambu	bus_stop
4385790299	10.7381916	76.6352965	Vadakkumuri	bus_stop
4385790300	10.7380071	76.6351438	Vadakkumuri	bus_stop
4385790310	10.7331815	76.6352468	ABUP School	bus_stop
4385790311	10.7331825	76.6351550	ABUP School	bus_stop
4385790315	10.7334675	76.6290750	Parakkulam	bus_stop
4385790316	10.7364034	76.6171292	Kannanur	bus_stop
4385790317	10.7366108	76.6171670	Kannanur	bus_stop
4385790318	10.7379775	76.6534171	Paalana Hospital	bus_stop
4388711399	9.6440436	76.5904904	Arumanoor	bus_stop
4393015800	8.5389025	77.0437567	Nedumkuzhi	bus_stop
4396410792	12.0425572	75.4906635		bus_stop
4397015590	11.5150174	75.6200780	Payyoli	
4403872095	9.2862898	76.7972926	Mylapra	bus_stop
4404097567	11.1604277	76.0119277		bus_stop
4407058389	10.5777061	76.0464722	Mamabazar	bus_stop
4408186393	8.4261500	77.1210900	kakkanam	bus_stop
4408187291	8.3890931	77.1051024	Amaravila	bus_stop
4410742590	8.4796794	76.9344252	Eanchakkal	bus_stop
4410752289	8.4787442	76.9374966	Enchakkal	
4411048990	11.3092405	75.7977706	Thanneerpanthal	bus_stop
4411069289	11.3140490	75.7983723	Kakkodi Panchayat	bus_stop
4413533091	11.8485914	75.4283602	chala temple	bus_stop
4413584491	11.8658460	75.4071749	thazhe chovva	
4413584492	11.8318378	75.4841674	Peralassery Temple	bus_stop
4413584689	11.8717069	75.3969833	mele chovva	
4415494793	9.5219045	76.5734398	Njaliakuzhi Bus Stand	
4416368609	9.6123950	76.5039088	Pandavam Bus Stop	bus_stop
4418777393	11.0181732	75.9489698	Venniyour	bus_stop
4419252891	11.5007667	75.7520950	Kavunthara	bus_stop
4419870996	10.1186635	76.3433064	Paravoor Kavala	bus_stop
4424476768	10.4895122	76.2338645	Cheerachi Valavu Bus Stop	bus_stop
4424782690	12.1867405	75.1294155	Panthrandil	
4425363807	11.0189340	76.1757317	Mankada	bus_stop
4432122751	9.1884359	76.5000783	Koyikkal Padikkal Junction	bus_stop
4432132338	9.1285000	76.4935000	Kinarumukku  bus stop	bus_stop
4433816089	9.7817849	76.6575723	Chirakkandam	bus_stop
4434041235	8.4166055	77.1077296	Marayamuttom	
4434161789	10.1668326	76.4612650	Onampilly	bus_stop
4434161890	10.1534743	76.3400561	Chegamanad	bus_stop
4434162289	10.1558501	76.3309535	Palapprassery	bus_stop
4435311889	10.9929405	75.9032721	My karakkal	bus_stop
4435311989	10.9933529	75.9046939		bus_stop
4437337990	10.1567508	76.3265014	Chunkam	bus_stop
4438513390	11.2200499	75.8477055	Koonjamoola	bus_stop
4441538552	12.2722536	75.3616913	Cherupuzha Mele Bazar Stop	bus_stop
4441561988	9.5260309	76.7941229	Njallamattom Vayal	bus_stop
4441586122	9.5377193	76.7619336	SRV Junction	bus_stop
4441813187	9.5452055	76.7754887	Gramadeepam	bus_stop
4444006993	11.0238383	76.1702223	കർക്കിടകം	bus_stop
4445085489	8.9827981	76.5589478	Society Jn. Chavara Pattathanam	bus_stop
4445085490	8.9872439	76.5592701	Kottukadu	bus_stop
4445085589	8.9857432	76.5345045	Nallezhuthu Jn. Chavara	bus_stop
4445085689	8.9798454	76.5347208	Kottankulangara Chavara	bus_stop
4445183990	8.9784651	76.5436009	"Mukkadamukku, Chavara"	bus_stop
4445183991	8.9797661	76.5387055	Kunjalumoodu Chavara	bus_stop
4445224090	8.9811029	76.5552725	Minimukku chavara	bus_stop
4445254691	8.9837453	76.5591507	Odukkathu mukku	bus_stop
4445254692	8.9885396	76.5592184	Mannarezhuthu mukku	bus_stop
4445254791	8.9793219	76.5523209	Bhararikavu chavara	bus_stop
4445268689	8.9815446	76.5568478	Kattimukku chavara	bus_stop
4445269089	8.9793546	76.5482899	Porunallayil mukku	bus_stop
4445269189	8.9781236	76.5461243	"Vazhayilmukku, Chavara"	bus_stop
4445269190	8.9934821	76.5588714	Ammaveedu	bus_stop
4445269192	9.0018653	76.5548668	Arumurikkada	bus_stop
4445269193	8.9882052	76.5563686	Cresant mukku	bus_stop
4445269392	8.9960708	76.5579206	Chola	bus_stop
4445269394	9.0023258	76.5564282	Mukhammoodi Mukku	bus_stop
4446320691	9.0014252	76.5352050	Titanium Jn.	bus_stop
4449114303	9.5397591	76.7362136	Cherppathu Kavala	bus_stop
4449258291	9.0236923	76.6057918	Karali Jn.	bus_stop
4449258294	8.9880651	76.5654794	Mukundapuram Jn.	bus_stop
4449269299	9.0922241	76.6863205	Kadambanad Jn.	bus_stop
4449276306	9.0056247	76.5693032	Kunnel Jn.	bus_stop
4449290895	9.0421029	76.6146475	Anjilimood Sasthamcotta	bus_stop
4449290896	9.0211497	76.5993094	Pattakadavu jn.	bus_stop
4449304001	9.0074316	76.5753089	Chenankara Junction	bus_stop
4449304002	9.0433945	76.6253770	Sasthamkotta	bus_stop
4449304003	9.0651670	76.6468490	Cinimaparampu Jn.	bus_stop
4449304004	9.0084398	76.5869030	Kallumpuram Jn.	bus_stop
4449304005	8.9888088	76.5747491	Vanchimukku Koivila	bus_stop
4449333102	9.0133653	76.5904771	Kottur Jn.	bus_stop
4449333103	9.0072932	76.5776733	Thottathikulangara temple Bus stop	bus_stop
4449333190	9.0740283	76.6586085	Sasthamnada Jn.	bus_stop
4449333292	9.0213493	76.5969702	Thoppi mukku	bus_stop
4449333293	9.0806120	76.6724730	Ezhammile Jn.	bus_stop
4449333294	9.0001550	76.5763562	Chandras Jn.	bus_stop
4449333295	8.9919716	76.5747339	Aiyyankoickal Jn.	bus_stop
4449346993	9.0071705	76.5847135	Padappanal	bus_stop
4449346994	9.0338407	76.6123155	Pottakkannan Jn.	bus_stop
4449971696	9.0398934	76.5399482	Kannetti Karunagappally	bus_stop
4449974192	8.9954568	76.5328392	Sankaramangalam Chavara	bus_stop
4449999089	9.0306962	76.5431000	Kuttivattom Chavara	bus_stop
4449999289	8.9880706	76.5792857	Kallummoodu Junction	bus_stop
4450019303	11.0365302	75.9371985	Kakkad	bus_stop
4450415325	9.5636641	76.7615896	KVMS Junction	bus_stop
4450423829	9.5577534	76.7643753	KVMS	bus_stop
4451596391	11.9305938	75.6299492	thalachangadu	bus_stop
4451775489	9.9485965	76.5497541	Sunday School	bus_stop
4454483089	11.9338781	75.4384701	Munderi Motta Bus Stop	bus_stop
4454483090	11.9338780	75.4384299	Munderi Motta	bus_stop
4461835689	9.5492826	76.7628291	Pulimoodu	bus_stop
4462727855	9.5454183	76.7540890	Kalampukattu Kavala	bus_stop
4463328152	8.9950332	76.5741610	Manakkattakkara Jn.	bus_stop
4464652790	8.4348940	77.1592821	Chamavila	bus_stop
4469551497	8.3009018	77.0930147	Pozhiyoor	bus_stop
4469555531	12.2692972	75.3594398	Co-operative Hospital Busstop	bus_stop
4469555532	12.2696096	75.3623992	Temple Stop	bus_stop
4469556683	12.2667259	75.3628427	St.Joseph School Bus Stop	bus_stop
4471324994	10.0226946	76.3412911	Mavelipuram Junction	bus_stop
4471324995	10.0231787	76.3411396	Mavelipuram Junction	bus_stop
4478326834	9.5598696	76.7161192		bus_stop
4478916643	9.7230712	77.1544343	Vandanmedu Bus Stop	bus_stop
4481278420	9.5408606	76.7794481	Manakkattu temple	bus_stop
4485019508	9.9775636	76.8019553	venmattom bus stop	bus_stop
4494088384	9.2081321	76.8188060	V Kottayam bus stop	bus_stop
4494428689	8.7418160	76.7062308		bus_stop
4496303389	8.7377312	76.7078423		bus_stop
4498826590	10.8998651	76.0596826	Thozhuvanoor	bus_stop
4498826698	10.8692686	76.0529293	Pandikasala	bus_stop
4498838189	10.9003885	76.0593058	Kavumpuram	bus_stop
4500378390	10.8959902	76.0619785	Meempara	bus_stop
4502197756	9.4355763	76.8142855	kurikilodilpadi	bus_stop
4502197776	9.4382434	76.8146395	pottanaruvi	bus_stop
4502377094	10.9168497	76.0413025	Kanhjipura	bus_stop
4502573192	10.9006351	76.0592751	Kavumpuram	bus_stop
4502579790	10.9007613	76.0592056	Thozhuvanoor	
4502588189	10.9007205	76.0592308	തൊഴുവാനൂർ	bus_stop
4502595189	10.8727627	76.0585449	Pandikasala	bus_stop
4504628369	9.5376079	76.7336562		bus_stop
4506165415	11.4457669	75.9747050	Kottarakoth	bus_stop
4507790257	11.4768128	75.9655519	MGM School	bus_stop
4507790791	11.4877290	75.9687814	Kakkavayal	bus_stop
4508092554	11.4505301	75.9605482	Malapuram	bus_stop
4510122590	8.8107644	76.6686915	Paravur Bus Stand	
4510375596	8.7963866	76.8115242		bus_stop
4510443390	8.7920277	76.7952522	Navaikulam East	bus_stop
4510465289	8.7752150	76.7860390	Thattupalam	bus_stop
4510465389	8.8000488	76.8144126	Njarayilkonam	bus_stop
4510465490	8.8046076	76.8273525	Thumpodu	bus_stop
4512992563	9.5404484	76.7277684		bus_stop
4518446049	8.9840674	76.5735025	Kallarikkal Junction	bus_stop
4525649590	9.7895651	76.6628843	Vellilappilly	bus_stop
4526755658	8.3815038	76.9922411	Vizhinjam	bus_stop
4528247911	9.5364062	76.7565718	Thekkethukavala	bus_stop
4529961395	10.5812529	76.0406784	Pancharamukku	bus_stop
4537382196	10.9623557	76.1315886	Yerumathadam Bus stop	bus_stop
4537389748	10.9692482	76.1178571	Palakaparambu Company Padi	bus_stop
4537391020	10.9694878	76.1203247	Palakaparambu Pallipadi Bus Stop	bus_stop
4537395276	10.9666024	76.1285108	Palakaparambu Bus stop	bus_stop
4537418830	10.9574416	76.1311689	Pappadappadi Bus stop	bus_stop
4537420852	10.9537418	76.1345833	Palliyalil Kulambu Kulathur	bus_stop
4537438749	9.8493388	76.8376925	Enchakkattu Kavala Bus stop	bus_stop
4540662157	8.9804737	76.5726635		bus_stop
4544520589	11.0366568	76.3752661	Valiyapara Busstop	bus_stop
4545803289	9.6687755	76.5518388	Kodathi Padi Junction	bus_stop
4548818893	10.0552166	76.3220550	HMT Junction	bus_stop
4548830490	10.0546490	76.3218929	HMT Junction	bus_stop
4549015472	12.2811776	75.3676212	Valiyapalam Bus Stop	bus_stop
4550892625	9.5650373	76.7463181	20th Mile	bus_stop
4551747882	10.5632961	76.2176482	padukkad junction	bus_stop
4554164594	10.3568875	76.1964406	Chunkam Bus stop	bus_stop
4561240974	9.9717809	76.2822201	Hospital Junction	bus_stop
4563417482	9.5377120	76.7487102	Kurangan Mala	bus_stop
4568074187	9.9753185	76.8718125		bus_stop
4582347190	10.4445705	76.8132858		bus_stop
4582352990	10.3941235	76.7755132	Parambikulam Bus Stop	bus_stop
4586836790	10.6913931	76.7243975	Ambattupalayam	bus_stop
4592991960	10.8138549	76.6359096	Hemambika Nagar	bus_stop
4595744190	10.4680551	76.1958969	Venginissery church stop	bus_stop
4595744192	10.4598016	76.1842406	Puthenroad	bus_stop
4595766191	10.4608353	76.1957085	Kappela church stop	bus_stop
4595766192	10.4640725	76.1977999	Ambalanada	bus_stop
4595766193	10.4656202	76.2001554	Gandhi nagar	bus_stop
4595766194	10.4681394	76.2005153	Venginissery centre	bus_stop
4595766195	10.4589652	76.1919620	Ammadam Jn.	bus_stop
4595773990	10.4589281	76.1900386	St.Antony's church Bus Stop	bus_stop
4595791589	10.4689926	76.1968887	Gurukulam public school Venginissery	bus_stop
4595791590	10.4663978	76.1945589	Anaswara nagar	bus_stop
4595791591	10.4648857	76.1904951	Chera stop	bus_stop
4595791592	10.4589502	76.1883555	Mullakkara	bus_stop
4603970592	9.9059147	77.0307390	Kallipara	bus_stop
4603970593	9.9010525	77.0430166	Josepuram	bus_stop
4606630594	8.7794235	76.6787639	Kappil Bus Stop	bus_stop
4606682191	8.7813059	76.6769373	Kappil temple bus stop	bus_stop
4608809311	9.8794432	76.6899162	Parakadavu	bus_stop
4609002836	9.5283044	76.7438234	Bhajanamadom Junction	bus_stop
4610402973	10.9680038	76.2691282	Kodikuthimala Bus Stop	bus_stop
4616175089	10.0863247	77.0611820	Munnar Local bus stand	bus_stop
4620721921	9.5409870	76.7091548	Thavalappara	bus_stop
4621636483	9.5536225	76.7339247	chappath	bus_stop
4625269190	10.3446178	76.2348108	Pullur mission hospital bus stop	bus_stop
4625575594	10.0473186	77.1136758		bus_stop
4625636389	10.0350468	77.1586317		bus_stop
4637275689	8.4905937	76.9559915	Golden Travels Bus Boarding Point	bus_stop
4639553292	9.9607346	76.2429257	Chirattapalam	bus_stop
4639553293	9.9632870	76.2431075	Njaliparambu	bus_stop
4639557089	9.9587012	76.2599008	Mattancherry	bus_stop
4643960002	10.2023571	76.2001322		bus_stop
4647564094	9.5206417	76.8140093	Thottamkavala Bus Stop	bus_stop
4652735340	8.5089434	76.9495288	PMG	bus_stop
4652735341	8.5142599	76.9459428	Plamoodu	bus_stop
4652735342	8.5140544	76.9458583	Plamoodu	bus_stop
4652738651	8.5292412	76.9386867	Kesavadasapuram	bus_stop
4652738652	8.5298183	76.9376793	kesavadasapuram market	bus_stop
4652738653	8.5301806	76.9385895		bus_stop
4652740285	8.5163590	76.9434051	KPSC	bus_stop
4652740286	8.5184292	76.9426954	Pattom Junction	bus_stop
4652740287	8.5228984	76.9408153	LIC Junction	bus_stop
4652745310	8.5305852	76.9287658	Ulloor	bus_stop
4652745311	8.5292499	76.9287344		bus_stop
4658650663	8.5263989	76.9389317	St marys school bus stop	bus_stop
4658650667	8.5372986	76.9262240		bus_stop
4658650671	8.5403242	76.9243913	Pongumoodu	bus_stop
4658657201	8.5481170	76.9209876	Kallampally	bus_stop
4658657202	8.5457660	76.9218148		bus_stop
4658657203	8.5400527	76.9249282	Pongumoodu	bus_stop
4658664752	8.4069937	76.9760309		bus_stop
4658671780	8.4800836	76.9337129	Eanchakkal	bus_stop
4659641789	9.4421002	76.4069888		bus_stop
4660701152	10.1890702	76.2015464	Moothakunnam	bus_stop
4665138938	10.1452545	76.2267346	KMK Junction	bus_stop
4665138939	10.1446931	76.2277819	KMK Junction	bus_stop
4665191696	9.0902083	76.4869181	Parayakavadu	bus_stop
4667905209	10.1845758	76.1939753	tharayil kavala	bus_stop
4674436189	8.7623450	76.7899104	Bus to Varkala	bus_stop
4674436190	8.7336705	76.7261301		bus_stop
4674436191	8.7383234	76.7066335	Varkala Cliff	bus_stop
4674436389	8.7339017	76.7250023	Bus to Beach	bus_stop
4675300271	10.1747150	76.2999907	shap padi	bus_stop
4681837053	9.6491680	76.7782223	Thanninavathil Bus Stop	bus_stop
4682712890	8.4910559	76.9561716	K.P.N bus to Hyderabad	bus_stop
4683340310	9.6291145	76.4846900		bus_stop
4688782138	8.5448532	76.8783779	VSSC Road	bus_stop
4688782142	8.5405293	76.8803856	Kulathoor	bus_stop
4688782144	8.5437072	76.8945162	Manvila	bus_stop
4688824841	8.5429576	76.9230371	Chenthi Junction	bus_stop
4688824842	8.5085586	76.9469661	Vikas Bhavan Bus Depot	
4694147800	10.1829987	76.1737720	Munambam Ferry	bus_stop
4695161877	10.0806710	76.3392534	Ambattukavu	bus_stop
4703618240	11.4009451	75.9400409	Andona	bus_stop
4703722604	9.6285503	76.8384214	Pathampuzha	bus_stop
4708279359	10.0622019	76.2881063	Cheranelloor Signal	bus_stop
4708279361	10.1145735	76.2596751	Naalam Mile	bus_stop
4708279363	10.1218792	76.2546248	Millupadi	bus_stop
4708279366	10.1274256	76.2434247	Khandakarnan veli	bus_stop
4708279367	10.1341612	76.2400735	Vazhikulangara	bus_stop
4708279877	10.1124944	76.2603016	Kochal	bus_stop
4708733903	10.0786023	76.2750767	Varapuzha	bus_stop
4710531781	8.5157335	76.9345083	Murinjapalam	bus_stop
4715509894	10.3119005	76.2484745		bus_stop
4716589462	10.1551268	76.2952168	Kunnukara	bus_stop
4716589463	10.1538024	76.2736708	Thelathuruth	bus_stop
4716591373	10.1549379	76.2798837	Chalakka Schoolpadi	bus_stop
4716858152	10.1561889	76.3113970	Kuttiyal	bus_stop
4718223849	8.5493463	76.9170665	Sreekariyam Market Bus Stop	bus_stop
4718223850	8.5485889	76.9172124	Sreekariyam (South)	bus_stop
4722201080	10.2155892	76.2017186	ശില്പി ബസ് സ്റ്റോപ്പ്‌	bus_stop
4722207712	10.2130358	76.2024506	Cheraman	bus_stop
4727685507	10.3699026	76.1055541	Kazhimbram	bus_stop
4727727520	10.3733702	76.1039605	Pazhassi nagar	bus_stop
4729063042	10.1972875	76.2009529	V.P. Thuruth	bus_stop
4729063046	10.1209644	76.1991859	Janatha	bus_stop
4729063048	10.0827527	76.2096157	Edavanakad Palli	bus_stop
4729063216	10.1264174	76.1983488	Ayyampilly	bus_stop
4729063219	10.0790683	76.2105579	Aniyal	bus_stop
4729063228	10.0665060	76.2129234	ATH	bus_stop
4729063558	10.0472547	76.2172102	Njarackal	bus_stop
4729546009	10.0874239	76.2085846	AEO Office	bus_stop
4730541585	9.5634169	76.7138450		bus_stop
4731124415	10.1480679	76.2247396	Municipal Junction	bus_stop
4731124416	10.1500428	76.2206028	Paravur Market	bus_stop
4731124902	10.1863869	76.2023631		bus_stop
4731124903	10.1792057	76.2262735	Vadakkumpuram	bus_stop
4731125089	10.1688454	76.2344303	Bharanimukku	bus_stop
4731125113	10.1485661	76.2262959	Municipal Junction	bus_stop
4731125114	10.1513660	76.2233285	Kannankulangara	bus_stop
4731125540	10.1883860	76.2171176		bus_stop
4731125541	10.1487134	76.2441192	Vedimara	bus_stop
4731125594	10.1489153	76.2242163	Municipal Junction	bus_stop
4731125595	10.1511017	76.2203240	Paravur Market	bus_stop
4731125621	10.1868815	76.2030536	Kuriyapilly	bus_stop
4731125622	10.1500494	76.2633743	Thekkethazham	bus_stop
4731125821	10.1876295	76.2077975		bus_stop
4731126041	10.1496737	76.2551481	Makkanayi Junction	bus_stop
4731126321	10.1498733	76.2672131	SNGIST	bus_stop
4731126453	10.1506347	76.2183894	St. Aloysious	bus_stop
4733438721	8.8242911	76.8111842	Elikkunnam Mugal	bus_stop
4733928387	10.0580774	76.2907347	Manjumel Kavala	bus_stop
4735556822	11.9837767	75.6752778	Payyencheri mukku	bus_stop
4735556824	11.9782681	75.6691823	Keezhur	bus_stop
4735556825	11.9707879	75.6590701	Keezhur kunnu	
4735559421	11.9479082	75.6096299	Chavassery	bus_stop
4735559521	11.9642102	75.6551760	Punnad	
4735559522	11.9532230	75.6430994	Uliyil	bus_stop
4735559523	11.9380153	75.6268031	Naduvanadu	bus_stop
4735594721	11.9419750	75.5997024	19th mile	bus_stop
4735594722	11.9337906	75.5845382	Palottupalli	bus_stop
4735966321	9.9672831	76.2862429	Jos Junction	bus_stop
4737560071	9.1105743	76.8536621	Aluvila Junction Bus Stop	bus_stop
4739412584	10.1974228	76.2007413	VP Thuruth	bus_stop
4739412585	10.2189469	76.2016450	Sringapuram Bus Stop	bus_stop
4739414349	10.2086832	76.2040393	കീഴ്ത്തോളി	bus_stop
4739421730	10.2062837	76.2011893	TKS Puram	bus_stop
4739476887	10.2284902	76.1982646	Vadakkenada	bus_stop
4740877276	10.1617599	76.2143399	Aalummaav	bus_stop
4740877282	10.1842757	76.2046224		bus_stop
4740877428	10.1655295	76.2133643	Parayakad Junction	bus_stop
4740877599	10.1717660	76.2120104	Thuruthipuram	bus_stop
4740877600	10.1781491	76.2109918	Andipillikavu	bus_stop
4742737143	10.2941707	76.1549471	Puthiyakavu	bus_stop
4743587674	10.6456153	76.5457972	Swathi junction Alathur	bus_stop
4744265922	10.6481639	76.5381104	Alathur town bus stop	bus_stop
4744265923	10.6482331	76.5310798	Alathur malamala junction	bus_stop
4744265925	10.6483327	76.5425053	Crecent hospital bus stop	bus_stop
4744267021	10.6469228	76.5417394	Alathur private Bus staion	
4744267022	10.6473940	76.5384190	Alathur court junction	bus_stop
4744267023	10.6461420	76.5481254	Alathur bank road junction	bus_stop
4744267024	10.6492653	76.5474280	Alathur bank road junction	bus_stop
4744564521	8.9962496	76.5783604	"Koivila, Bharanikkavu"	bus_stop
4745604977	10.1536822	76.2736147	Thelathuruth	bus_stop
4745634827	10.1726002	76.2963929		bus_stop
4745634828	10.1725189	76.2963756		bus_stop
4745634829	10.1704512	76.2958867		bus_stop
4745634831	10.1628388	76.2875124		bus_stop
4745634832	10.1554876	76.2845243	Chalakka	bus_stop
4745634833	10.1555456	76.2844347	Chalakka	bus_stop
4745634835	10.1596270	76.2858239		bus_stop
4748418898	8.9757533	76.5351064	Chavara Pvt. Bus Stand	
4753199419	9.9752779	76.2785881	St Theresas College	bus_stop
4759260783	9.7944115	76.3025519	Vallethodu	bus_stop
4759574438	8.9211404	76.5588152	Kavanad jn.	bus_stop
4759574439	8.9125808	76.5596258	Vallikeezhu jn.	bus_stop
4764023524	11.3952732	75.7261657	Pookad	bus_stop
4764038321	11.3937826	75.7272476	Pookad	bus_stop
4766235375	10.9747413	76.1784524	cholakkulam  busstop	bus_stop
4769000937	11.4112872	75.9457066	Vezhupoor	bus_stop
4769428928	10.0250912	76.3073159	Edappally Junction	bus_stop
4769428932	10.0432261	76.2990611	Kunnumpuram	bus_stop
4769436232	9.9501413	76.3318944	Petta	bus_stop
4769436233	9.9547213	76.3275850	Champakkara	bus_stop
4769436235	9.9696240	76.3179598	Vytilla Junction	bus_stop
4782238960	10.7739985	76.5810926	anikkode	bus_stop
4792523922	9.8233774	76.3112761	Eramalloor	bus_stop
4792523923	9.8347671	76.3093102	Kochveli Junction	bus_stop
4792525422	9.6739784	76.3397695	Xray by pass	bus_stop
4792525424	9.6654455	76.3535143	Nallannakavala	bus_stop
4792525425	9.6621743	76.3530004	Kunchikkavala;Maruthorvattom junction	bus_stop
4792525426	9.6634365	76.3474954	Maruthorvattom temple	bus_stop
4792525427	9.7034120	76.3563741	Chenganda Valavu	bus_stop
4792530321	9.6555200	76.3515014	Pottikavala	bus_stop
4792530322	9.6551138	76.3373999	11th Mile	bus_stop
4792530323	9.6674175	76.3390929	KVM hospital	bus_stop
4792530421	9.6545668	76.3478107	Bakery junction	bus_stop
4792530422	9.8780380	76.3038187	Aroor Bypass	bus_stop
4792530521	9.6765555	76.3931153	Thaneermukkom junction	bus_stop
4793197371	9.1139555	76.4736073		bus_stop
4799885321	8.9218972	76.9086447	Thaluvachira Junction	bus_stop
4800751006	10.2253450	76.1983664	തെക്കേ നട	bus_stop
4800751007	10.2274041	76.1971224	Padinjare Nada (west Nada) Bus Stop	bus_stop
4802320604	10.1757841	76.2276799		bus_stop
4802320607	10.1781641	76.2218837	കപ്പേള	bus_stop
4802320608	10.1782737	76.2162594	SN Road	bus_stop
4802320945	10.1783334	76.2186520	കൊച്ചങ്ങാടി	bus_stop
4805940485	10.0434863	76.2986487	Kunnumpuram	bus_stop
4817115017	9.5786099	76.7440394	1st Mile	bus_stop
4817236942	11.2584318	75.8020542	Kotooli Bus Stop	bus_stop
4817288724	9.2332837	76.5184641	HSChettikulangara Bus Stop	bus_stop
4817289324	9.2227087	76.5157587	Chettikulangara Market Stop	bus_stop
4817302221	9.2191384	76.5156208	Kamukumvila Junction	bus_stop
4822620724	10.8628596	76.2207823	Vandumthara	bus_stop
4829408331	9.0217800	76.8070464	Alakkuzhi Junction	bus_stop
4829733521	9.2770607	76.5213468	Kottamuku	bus_stop
4829735633	9.2244689	76.6770026	പന്തളം	
4829735635	9.2246445	76.5364831	Laha Junction	bus_stop
4829735638	9.2410163	76.5534643	KallumalaBusStop	bus_stop
4829735639	9.2054328	76.5640603	Kurathikaadu	bus_stop
4829735641	9.2547670	76.5514601	HospitalJunction	bus_stop
4829735825	9.2246222	76.5365306	Laha Junction	bus_stop
4829735837	9.2450750	76.5849970	Kochalumoodu	bus_stop
4829735839	9.2338088	76.5907303	Mankamkuzhy	bus_stop
4829738826	9.2155948	76.5159771	Cherukara Bus Stop	bus_stop
4829744725	9.2508715	76.5296107	KandiyurBusStop	bus_stop
4829744731	9.3111920	76.5353918	PrivateBusStation	
4829745227	9.1945028	76.5097757	Kakkanadu	bus_stop
4829745228	9.1981864	76.5119395	NadakavuBusStop	bus_stop
4829745229	9.2038878	76.5137388	PanamballyBusStop	bus_stop
4829745321	9.2250333	76.5293649	Altharamoodu	bus_stop
4829745324	9.2200216	76.5158992	VarikkolilJunction	bus_stop
4829745722	9.2506946	76.5323940	AmbalamukkuBusStop	bus_stop
4829745726	9.1776938	76.5026568	Mukkavalla	bus_stop
4829751221	9.2077637	76.4947460	Chittankari Junction	bus_stop
4829752229	9.2101922	76.4950691	PathiyoorBusStop	bus_stop
4829752721	9.2419313	76.5198185	PanachamoodBusStop	bus_stop
4829752723	9.2492967	76.5364028	Pookada	bus_stop
4832286682	8.8847022	76.5912754		bus_stop
4834362658	11.6599680	76.1651869		bus_stop
4838607323	9.2202113	76.5174800	VaduthanaJunction	bus_stop
4838621222	9.2590865	76.4635421	Haripad Kavala	bus_stop
4838626021	9.2278595	76.5166259	Chettikulangara	bus_stop
4853803092	11.4410631	75.6955779	New bus stand koyilandy	
4889056845	10.1029556	76.3584376	Aluva Police Station	bus_stop
4889056860	10.1030366	76.3557487	Thrikkunnathu Seminary	bus_stop
4891933521	10.5061092	76.2781321	Moorkanikkara	bus_stop
4902953821	10.2067124	76.2939356	Kuzhur shap stop	bus_stop
4914030721	10.9245878	76.1305889	NAIR PADI	bus_stop
4935377586	10.6879957	76.6602054		bus_stop
4935386179	10.6864855	76.6580698	Althara bus stop	bus_stop
4953764524	10.7093898	75.9558389	puthiyiruthi	bus_stop
4953767122	10.7303930	75.9469056	veliyankodu	bus_stop
4953932022	8.6877852	76.7737047	Nilakkamukku	bus_stop
4956972896	10.9755288	76.1834143	Valiyaveetilpadi	bus_stop
4966586721	8.7973394	76.7690496	Kadampattukonam	bus_stop
4967470021	11.6453663	76.1444352	Kakkavayal	bus_stop
4982514035	8.9208304	76.5588029	Kavanadu	bus_stop
4993364621	10.2524505	76.2191408	Narayanamangalam	bus_stop
4993364622	10.2525678	76.2190321	Narayanamangalam	bus_stop
4994362424	10.4556796	76.1902505	Parpakadavu Road	bus_stop
4994362425	10.4556167	76.1915032	Shapu Junction (Toddy Shop)	bus_stop
5015295203	10.5272092	76.2019639	Kanattukara	bus_stop
5018097022	9.7823274	76.5975266	Poovathinkal	bus_stop
5018097622	9.7707412	76.6106092		bus_stop
5018097623	9.7762328	76.6128734		bus_stop
5031547822	10.4275066	76.2376853	Palakkadavu	bus_stop
5032024460	10.7497563	76.3836317	Theruvu Bus Stop	bus_stop
5032024461	10.7509974	76.3823962	Laserpadi Bus Stop	bus_stop
5032050799	10.7534872	76.3797437	Chirankara	bus_stop
5032050800	10.7568030	76.3819863	Theeppara	bus_stop
5032050801	10.7627514	76.3821152	Palam Stop	bus_stop
5032050803	10.7467856	76.3841273	Mrigasupathri Stop	bus_stop
5040661346	10.7536237	76.4369179	Lakkidi Bus Stop	bus_stop
5040889730	10.7350369	76.4272969	Community Health Centre Bus-stop	bus_stop
5041096683	10.7258683	76.4256157	Kuthampully Road Jn	bus_stop
5059468623	10.6176432	76.0973673	Paarappuram	bus_stop
5066280838	9.1180840	76.4844039		bus_stop
5068687522	8.5302656	76.9386668	Kesavadasapuram	bus_stop
5079145521	11.4217682	76.3262801	Marutha	bus_stop
5082970506	10.6147382	76.1968754		bus_stop
5082970507	10.6147380	76.1968986	Medical College	bus_stop
5082970508	10.6189420	76.1995117		bus_stop
5082970769	10.6176471	76.1993753		bus_stop
5082992633	10.6087289	76.1994614	Bus Stop	bus_stop
5094000623	9.5263185	76.5460730	Nellickal Bus Stop	bus_stop
5097234921	8.5327095	77.1447283	Neyyar Dam	
5104357823	11.8700220	75.3675938		bus_stop
5108802950	11.9542308	75.4917951	Arayal Motta	bus_stop
5111558823	9.1134319	76.6338586	Chakkuvally	bus_stop
5111559721	9.1348323	76.6270086	Vanchimukku	bus_stop
5111559722	9.1322083	76.6325037	Anayadi	bus_stop
5127810260	11.4572170	76.0020481	Kannoth	bus_stop
5145335691	9.9852674	76.2795630	St Alberts College	bus_stop
5151905624	11.5983369	75.5908278		
5167302825	11.8773633	75.3723717		bus_stop
5167521160	11.8679756	75.3663397	State Bank Stop	bus_stop
5167628925	11.8762202	75.3729567	Taluk	bus_stop
5168567944	11.9038312	75.3692994	Podikkundu	bus_stop
5168573218	8.5640051	76.9856093	Karakulam Bridge	bus_stop
5168629244	11.8786184	75.3746028	South Bazar	bus_stop
5170711391	11.8765823	75.3677710	Stadium bus stop	bus_stop
5171084833	11.8847970	75.3728468	AKG Bus Stop	bus_stop
5171119593	11.8806710	75.3742773		bus_stop
5179559221	9.5609568	76.5286106	Diwan Kavala	bus_stop
5179559222	9.5632889	76.5258501	Kuruppumpady	bus_stop
5179559421	9.5584506	76.5291732	Diwanpuram	bus_stop
5184021568	11.8720710	75.3964237	Mele Chovva	bus_stop
5184021569	11.8719001	75.3964856	Mele Chovva	bus_stop
5184021571	11.8719891	75.3933308	Dharmasamajam	bus_stop
5184021572	11.8741150	75.3880620	Kannothumchal	bus_stop
5184021573	11.8739191	75.3881457	Kannothumchal	bus_stop
5184021574	11.8742966	75.3826876	Thana	bus_stop
5184021575	11.8740645	75.3825314	Thana	bus_stop
5184086620	9.3701016	76.5796139	Thukalasserry	bus_stop
5217325198	10.0767076	76.6294483	Ramalloor bus stop	bus_stop
5217446463	11.8823032	75.4305235	കാപ്പാട്	bus_stop
5217446464	11.8945025	75.4292599	ചേലോറ	bus_stop
5217446465	11.9004774	75.4309028	മതുകോത്ത്	bus_stop
5217465819	11.9014380	75.4457498	Eachur	bus_stop
5217465820	11.9091551	75.4500186	കമാൽപീടിക	bus_stop
5217466721	11.9133805	75.4573294	കുടുക്കിമൊട്ട	bus_stop
5217466722	11.9225765	75.4835302	കൊയ്യോടഞ്ചാൽ	bus_stop
5217488557	11.9841276	75.3760189		bus_stop
5219580305	10.6552801	76.5118636	K.C.P School Bus Stop	bus_stop
5220127274	9.5922115	76.5283634	Jubilee Park Bus Stop	bus_stop
5234352210	11.7565311	75.8799377	Korome pallippadi	bus_stop
5240431892	9.9776802	76.2769397	Menaka	bus_stop
5243665921	10.5453121	76.5794903	Kairady	bus_stop
5243800119	9.2212362	76.7135659	Thumpamon	bus_stop
5251509321	10.5795168	76.0438108	Pallavi	bus_stop
5253654222	10.0130048	77.0101042	Iruttukanam	bus_stop
5253717421	10.0538972	76.7744132	Ksrtc Bus Stop	bus_stop
5255461723	12.0659790	75.5799213	Vembuva	
5255461724	12.0610197	75.5811810	Payyavoor	
5255461923	12.1258286	75.6338784	Kottadikavala	bus_stop
5255461925	12.0962402	75.5630171	Chalimparambu	bus_stop
5255461926	12.0831235	75.5631628	Poopparamba	bus_stop
5255497123	12.0709260	75.5762700	Vembuva	bus_stop
5255497124	12.0770905	75.5664206	Koottakalam	bus_stop
5255497221	12.1119651	75.6281340	Padankavala	bus_stop
5255497222	12.0604566	75.5602801	Chundapparambu	bus_stop
5257529164	9.1167359	76.4807902		bus_stop
5257592722	12.0544076	75.5335306	Koottummugham	bus_stop
5257603922	12.0489198	75.5248699	Podikkalam	bus_stop
5261851010	10.1565933	76.3547670	Athani	bus_stop
5261851012	10.1579846	76.3921868	നെടുമ്പാശ്ശേരി എയർപോർട്ട് ബസ് സ്റ്റാന്റ്	bus_stop
5263465562	9.6709242	76.7810420	Veyilkanampara Bus Stop	bus_stop
5272962499	11.6631094	76.2698922		bus_stop
5275111082	11.4233317	75.8317834		bus_stop
5275111110	11.4221814	75.8315688		bus_stop
5277959916	11.6601667	76.2498600	Manikkuni	bus_stop
5279332258	8.4971365	76.9339559		bus_stop
5283782521	11.7741141	75.8740757	Karimbil junction	bus_stop
5291902075	8.7456117	76.8016112		bus_stop
5291902076	8.6423460	76.8437054	16th MIleStone Bus Stop	bus_stop
5293137204	8.7355048	76.7253355		bus_stop
5293137482	8.7385126	76.7242192		bus_stop
5293137483	8.7354952	76.7252344	Maithanam	bus_stop
5294090650	8.7324976	76.7108666		bus_stop
5295234430	9.9631683	76.2879719	Medical Trust Hospital	bus_stop
5300436110	10.7287948	76.7829663	Nallepilly Bus stop	bus_stop
5300436205	10.7375466	76.8336961	Kozhinjampara Bus Stand	
5301844322	10.5871886	76.0242374	Hospital Center	bus_stop
5301844521	10.5893261	76.0254230	Ovungal	bus_stop
5302163521	10.5950392	76.0295224	Muthuvattur	bus_stop
5308518336	8.5622213	76.9832163	Karakulam Panchayath Bus Stop	bus_stop
5308518341	8.6285877	77.0015074	Puthenpalam	bus_stop
5308518342	8.6414012	77.0206906	Chullimanoor Bus Stop	bus_stop
5308518347	8.6741345	77.0896756	Vithura Market Junction (Chanthamukku)	bus_stop
5308518350	8.6739945	77.0927346	KPSM Junction	bus_stop
5308518351	8.6771493	77.0968747	Theviyode	bus_stop
5308518353	8.6785811	77.1146095	Bus Stop	bus_stop
5308572481	9.4150159	76.3489933	T D Medical College Bus Stop	bus_stop
5308579373	9.6097154	76.3296713	Kanjikkuzhy	bus_stop
5308579647	9.6484998	76.3363963	Mayithara	bus_stop
5309706680	11.4242810	75.8458156	Paraladu Bus Stop	bus_stop
5311522163	8.7339481	76.7262484		bus_stop
5315886997	8.7155617	76.7240243		bus_stop
5315886998	8.7239616	76.7243225		bus_stop
5315886999	8.7313975	76.7161326		bus_stop
5350769521	9.4818093	76.3864896	Ferry	bus_stop
5352825606	9.5688801	76.6353904	Kalachantha	bus_stop
5359294473	11.4203214	75.8313932		bus_stop
5365451921	11.7689758	75.4905743	Mythri Bus Stop1	bus_stop
5377832022	9.9519381	76.3613205	Hill Palace	bus_stop
5377841321	9.9530533	76.3404853	Vadakkekotta	bus_stop
5379782848	9.9659299	76.2952354	Manorama Junction	bus_stop
5409139205	10.5625492	76.1486331	IES College Of Engineering Bus Stop	bus_stop
5409224594	10.5627624	76.1684687	Amala Bus stop	bus_stop
5411613992	11.2883422	75.8070935	Malaparamba Vayanasala	bus_stop
5418109264	8.5660326	76.8871448	karyavattom university bus stop	bus_stop
5418119803	8.5601256	76.8745772	bus stop	bus_stop
5418165670	8.5498319	76.8845476	thripadapuram bus stop	bus_stop
5418169406	8.5424954	76.8852935	Arassummoodu Bus stop	bus_stop
5418174530	8.5498664	76.8845438	Thripadapuram bus stop	bus_stop
5418174552	8.5536446	76.8844376	thripadagiri bus stop	bus_stop
5418179738	8.5601453	76.8745452		bus_stop
5418216597	8.5431352	76.8924425		bus_stop
5418488553	10.5224830	76.2128733	Kuruppam Road Bus Stop	bus_stop
5423779221	10.0281091	76.3099185	Edappally Lulu	bus_stop
5437415013	9.0291209	76.6119870		bus_stop
5439726400	11.9499138	75.4717306	39	bus_stop
5442000714	11.4633800	75.9914600	Kaippuram	bus_stop
5442015347	11.4973280	75.9903323	Manal Vayal	bus_stop
5442023343	11.5000955	75.9896099	Kannappankundu	bus_stop
5444813630	12.1443026	75.1481496	"Jetty to Ayitti, Padne, Kotty"	
5472057922	11.4159621	75.8167800	Aalin chuvad	bus_stop
5472086722	11.4003033	75.7899674		bus_stop
5472087221	11.4002893	75.7900212	Cheekkilode	bus_stop
5472087321	11.3890534	75.7602598	Atholi	bus_stop
5472319795	9.6289069	76.7715403	Rose Junction Bus Stop	bus_stop
5485014974	11.3854023	76.0702196	Poovaranthode Bus Stop	bus_stop
5514503221	10.5999467	76.0211090	Ambala Nada Junction-Perakam	bus_stop
5523159675	8.5509557	77.0667946	uriyakkodu	bus_stop
5523168650	8.5490767	77.0723600	konniyoor palam	bus_stop
5524950666	10.0814506	76.3644444	Kodikuthmala	bus_stop
5572435339	8.4969840	76.9805550	Rotary	bus_stop
5572442726	8.4976175	76.9852842		bus_stop
5587437321	10.6955608	76.0917180	Akkikkavu	bus_stop
5587437521	10.6874945	76.0398324	Chirakkal Bus stand	bus_stop
5601009681	11.2576773	75.7861910	Mofussil Bus Stand City Bus Stop	bus_stop
5603368421	9.8280393	77.0125671	Double Cutting Junction	bus_stop
5631961587	9.5945888	76.3121390	Anamukku Bus Stop	bus_stop
5632374181	9.5939832	76.3044292	Thayyil	bus_stop
5644419346	9.5898126	76.3048855	Varan Junction	bus_stop
5644419347	9.5827130	76.3061462	Pollethai	bus_stop
5644419356	9.5864089	76.3055578	Kasthurba	bus_stop
5645297994	9.5750530	76.3070027	Korthusherri	bus_stop
5645297996	9.5671500	76.3087325	Kattoor Junction	bus_stop
5645297997	9.5645926	76.3091360	Kattoor Church	bus_stop
5645298006	9.6419316	76.2985549	Thiruvizha Beach Junction	bus_stop
5645302523	9.6019625	76.3028210	Mararikkulam Junction	bus_stop
5657053465	9.6613323	76.2993606	Arthunkal	bus_stop
5657053466	9.6642164	76.2995380	Kochu Palli	bus_stop
5657053467	9.6651609	76.3043574	Chambakkadu	bus_stop
5658274063	11.4409005	75.6940406	Old Bus Stand	
5661240499	11.1924573	75.8041467	Chenoth School Bus Stop	bus_stop
5662551754	9.6018201	76.3144983	Mararikkulam Market	bus_stop
5662551757	9.5867594	76.3149067	Janatha Market	bus_stop
5662551759	9.5831926	76.3153424		bus_stop
5671904441	11.4456201	75.8365846	Balussery Mukku	bus_stop
5671917030	11.4217700	75.8322635		bus_stop
5684074596	9.6822183	77.0296902	Aalady Bus Stop	bus_stop
5689967927	9.7277331	76.3003269	Vettackal Bus Stop	bus_stop
5695214822	11.2057303	75.8777171	Karad	bus_stop
5698825521	8.6970031	76.7545864	Gurumandiram	bus_stop
5703612506	8.5402679	76.9694914		bus_stop
5705749214	10.8021242	76.2264933	Pookupadi	bus_stop
5746403757	11.6118326	76.2683242	Mankalankarp Bus Stop	bus_stop
5756729626	10.0297470	76.2545572	Tower Line Bus Stop	bus_stop
5756729627	10.0415239	76.2627983	Moolampilly	bus_stop
5756729628	10.0107693	76.2580991	Mulavukadu Toll	bus_stop
5756729629	9.9910377	76.2648026	Bolgatty	bus_stop
5756729630	9.9564416	76.2570915	Chakkamadam Bus Stop	bus_stop
5756729631	9.9640554	76.2456927	Kunnumpuram	bus_stop
5757830236	10.0568213	76.4568369	Vathimattom	bus_stop
5757830237	10.0589330	76.4594366	Bank Junction	bus_stop
5757830238	10.0515189	76.4492134	Chelakkulam	bus_stop
5757830239	10.0540438	76.4530939	Jai Bharath College	bus_stop
5757830240	10.0434350	76.4485546	Bhandarakkavala	bus_stop
5757830241	10.0305290	76.4488305	Double Paalam	bus_stop
5757830243	10.0387971	76.4501526	Kummanod	bus_stop
5757830244	10.0015346	76.4582844	Kadayirippu Bus Stop	bus_stop
5757830246	10.0108880	76.4556430	Engineering College Bus Stop	bus_stop
5757830247	9.9740280	76.4476030	Patham Mile Bus Stop	bus_stop
5757830250	10.0506459	76.4274615	Vilangu	bus_stop
5757830251	10.0211429	76.4285542	Millumpadi Bus Stop	bus_stop
5757830252	10.0358702	76.4231032	Njaralloor Bus Stop	bus_stop
5757830253	10.0338015	76.4300655	Njaralloor Bus Stop	bus_stop
5757830255	10.0051176	76.4401100	Pancode Junction	bus_stop
5757830256	10.0074969	76.4419958	Pulinchode Junction	bus_stop
5757830257	9.9993870	76.4409580	Iruppachira	bus_stop
5757830258	9.9827560	76.4423530	Ashramam Bus Stop	bus_stop
5757830260	10.0600190	76.4196200	Muri Vilangu Bus Stop	bus_stop
5757830261	10.0568080	76.4106610	Chemmalappady Bus Stop	bus_stop
5757830263	10.0366621	76.4162776	Molekkurish Bus Stop	bus_stop
5757830264	10.0403590	76.4136880	Sevana Padi	bus_stop
5757830266	10.0363469	76.4080082	Kizhakkambalam	bus_stop
5757830267	10.0308620	76.4080220	Achappan Kavala	bus_stop
5757830268	10.0176120	76.4022274	Morakkala Church	bus_stop
5757830269	10.0109670	76.4103590	Pailimukk Bus Stop	bus_stop
5757830270	9.9895643	76.4094615	Peechingachira	bus_stop
5757830271	9.9859156	76.4117488	Rajashree Kavala	bus_stop
5757830272	9.9903452	76.4209181	Kollappady	bus_stop
5757830274	9.9658500	76.4126630	Bible College Jn Bus Stop	bus_stop
5757830275	9.9733520	76.4177620	Pannikuzhy	bus_stop
5757830276	9.9636090	76.4071060	Varikoli	bus_stop
5757830277	10.0594810	76.3953945	Pukkattupady	bus_stop
5757830278	10.0283562	76.3932956	Wonderla	bus_stop
5757830279	10.0294759	76.3855902	Manakkakadavu Toll	bus_stop
5757830280	10.0296291	76.3897504	Pallithazham	bus_stop
5757830281	10.0012286	76.3944375	Padathikara	bus_stop
5757830282	10.0076020	76.3781810	Padathikkara Thuruth	bus_stop
5757830283	9.9843969	76.3955826	FACT Club	bus_stop
5757830284	9.9858864	76.3919432	Harimattam Ambalam	bus_stop
5757830285	9.9836258	76.3892634	Ambalamedu Post Office	bus_stop
5757830286	9.9779433	76.3849696	Kuzhikkad	bus_stop
5757830287	9.9945697	76.3964560	Chakku Company	bus_stop
5757830288	9.9552820	76.3960040	Panikkarupady Bus Stop	bus_stop
5757830289	9.9707313	76.3810613	HOC	bus_stop
5757830290	9.9691994	76.3783832	Cochin Refinery	bus_stop
5757830291	9.9754332	76.3813003	Jwalagiri	bus_stop
